sk_node,node_id,node_name,node_technology_id,node_domain_id,node_type_id,vendor_id,node_lat,node_long,node_azimuth,node_region_id,node_sub_region_id,node_zone_id
114,226.0,G18_Test_2,1,1,1,1,#N/A,#N/A,#N/A,,,
136,291.0,G09_Kerr Jarga_1,1,1,1,1,#N/A,#N/A,#N/A,,,
137,292.0,G09_Kerr Jarga_2,1,1,1,1,#N/A,#N/A,#N/A,,,
138,293.0,G09_Kerr Jarga_3,1,1,1,1,#N/A,#N/A,#N/A,,,
168,233.0,G09_Tendaba Camp_1,1,1,1,1,#N/A,#N/A,#N/A,,,
197,124.0,G09_Pakali Ba_1,1,1,1,1,13.517339,-15.243834,330,,,
198,125.0,G09_Pakali Ba_2,1,1,1,1,13.517339,-15.243834,270,,,
199,126.0,G09_Pakali Ba_3,1,1,1,1,13.517339,-15.243834,150,,,
245,237.0,G09_Tendaba Camp_2,1,1,1,1,#N/A,#N/A,#N/A,,,
300,327.0,G09_Sk Primary School_1,1,1,1,1,13.434873,-16.678891,0,,,
301,328.0,G09_Sk Primary School_2,1,1,1,1,13.434873,-16.678891,120,,,
302,329.0,G09_Sk Primary School_3,1,1,1,1,13.434873,-16.678891,240,,,
441,1.0,G_Banjul Tower@Banjul Tower,1,1,2,1,13.458224,-16.584069,,,,
442,79.0,G_HQ@HQ,1,1,2,1,13.455589,-16.683532,,,,
443,47.0,G_Kaiaf@Kaiaf,1,1,2,1,13.411158,-15.610371,,,,
444,66.0,G_Dobson@Dobson,1,1,2,1,13.449784,-16.575675,,,,
445,82.0,G_Kaur@Kaur,1,1,2,1,13.697851,-15.326958,,,,
446,6.0,G_Airport@Airport,1,1,2,1,13.349056,-16.658,,,,
447,0.0,G_Arab Islamic Bank@Arab Islamic Bank,1,1,2,1,13.445166,-16.674637,,,,
448,8.0,G_Bajakunda@Baja Kunda,1,1,2,1,13.481843,-14.053507,,,,
449,80.0,G_Brikama Ba@Brikama Ba,1,1,2,1,13.532752,-14.925251,,,,
450,62.0,G_Jambur@Jambur,1,1,2,1,13.307093,-16.696712,,,,
451,65.0,G_Basori@Basori,1,1,2,1,13.22767,-16.579877,,,,
452,16.0,G_White Building@White Building,1,1,2,1,13.465954,-16.691005,,,,
453,49.0,G_Earth Station@Earth Station,1,1,2,1,13.401895,-16.653944,,,,
454,21.0,G_Fass@Fass,1,1,2,1,13.564781,-16.428517,,,,
455,22.0,G_Fatoto@Fatoto,1,1,2,1,13.39304,-13.907269,,,,
456,25.0,G_Gunjur@Gunjur,1,1,2,1,13.16955,-16.760743,,,,
457,26.0,G_Senegambia@Senegambia,1,1,2,1,13.44226,-16.721727,,,,
458,84.0,G_Sukuta-Jabang Highway@Sukuta-Jabang Highway,1,1,2,1,13.394479,-16.705676,,,,
459,83.0,G_Jabang Estate@Jabang Estate,1,1,2,1,13.356374,-16.705119,,,,
460,33.0,G_Kwenilla@Kwenilla,1,1,2,1,13.396557,-15.793325,,,,
461,34.0,G_Lamin@Lamin,1,1,2,1,13.383897,-16.644597,,,,
462,64.0,G_Mansakonko@Mansakonko,1,1,2,1,13.455152,-15.535005,,,,
463,13.0,G_Ndugu Kebbeh@Ndugu Kebbeh,1,1,2,1,13.542507,-16.319659,,,,
464,43.0,G_Sanyang@Sanyang,1,1,2,1,13.268192,-16.762662,,,,
465,2.0,G_Serra Kunda Mkt Bldg@Serra Kunda Mkt Bldg,1,1,2,1,13.439217,-16.682959,,,,
466,48.0,G_Sinchubaliya@Sinchubaliya,1,1,2,1,13.393696,-16.674208,,,,
467,44.0,G_Somo Bldg@Somo Bldg,1,1,2,1,13.425182,-16.674104,,,,
468,51.0,G_Sudowol@Sudowol,1,1,2,1,13.361017,-13.99968,,,,
469,55.0,G_Bundung@Bundung,1,1,2,1,13.426453,-16.6837,,,,
470,56.0,G_Faji Kunda@Faji Kunda,1,1,2,1,13.419903,-16.667111,,,,
471,57.0,G_New Jeshwang@New Jeshwang,1,1,2,1,13.436689,-16.674701,,,,
472,58.0,G_Kabafita@Kabafita,1,1,2,1,13.28309,-16.636769,,,,
473,86.0,G_Mandinari@Mandinari,1,1,2,1,13.367586,-16.60632,,,,
474,87.0,G_Illiassa@Illiassa,1,1,2,1,13.565307,-15.748364,,,,
475,85.0,G_Essau@Essau,1,1,2,1,13.482011,-16.522206,,,,
476,88.0,G_Denton Bridge@Denton Bridge,1,1,2,1,13.468615,-16.629499,,,,
477,89.0,G_Kubariko@Kubariko,1,1,2,1,13.332168,-16.629319,,,,
478,90.0,G_Farato-Paradise City@Farato-Paradise City,1,1,2,1,13.307454,-16.658267,,,,
479,52.0,G_Tabokoto@Tabokoto,1,1,2,1,13.410206,-16.668953,,,,
480,71.0,G_Ebo Town@Ebo Town,1,1,2,1,13.436607,-16.669311,,,,
481,92.0,G_Busumbala II@Busumbala II,1,1,2,1,13.339416,-16.682984,,,,
482,93.0,G_Farafenni 2@Farafenni 2,1,1,2,1,13.575382,-15.601391,,,,
483,75.0,G_Busumbala@Busumbala,1,1,2,1,13.320299,-16.667309,,,,
484,76.0,G_Brikama II@Brikama II,1,1,2,1,13.266641,-16.642473,,,,
485,39.0,G_Kartong@Kartong,1,1,2,1,13.097707,-16.761586,,,,
486,149.0,G_Test@Test,1,1,2,1,#N/A,#N/A,,,,
487,68.0,G_Brikama Tower@Brikama Tower,1,1,2,1,13.274743,-16.649217,,,,
488,70.0,G_Marakissa@Marakissa,1,1,2,1,13.216425,-16.648561,,,,
489,35.0,G_Nema Kunku@Nema Kunku,1,1,2,1,13.402433,-16.683128,,,,
490,42.0,G_Kombo Kerewan@Kombo Kerewan,1,1,2,1,13.371528,-16.625793,,,,
491,38.0,G_Somita@Somita,1,1,2,1,13.205891,-16.305407,,,,
492,3.0,G_Jiboroh@Jiboroh,1,1,2,1,13.185054,-16.577187,,,,
493,77.0,G_Kerr Jarga,1,1,2,1,#VALUE!,#VALUE!,,,,
494,29.0,G_Sheraton@Sheraton,1,1,2,1,13.395622,-16.753732,,,,
495,72.0,G_Bakadagi@Bakadagi,1,1,2,1,13.302762,-14.387321,,,,
496,4.0,G_Gamstar@Gamstar,1,1,2,1,13.453018,-16.57429,,,,
497,23.0,G_Gamtel Bakau@Gamtel Bakau,1,1,2,1,13.479507,-16.66756,,,,
498,60.0,G_Bato Kunku@Bato Kunku,1,1,2,1,13.325792,-16.798796,,,,
499,59.0,G_Ngeyen Sanjal@Ngeyen Sanjal,1,1,2,1,13.592373,-15.44222,,,,
500,91.0,G_Tanji@Tanji,1,1,2,1,13.358275,-16.797257,,,,
501,20.0,G_Brikama UTG@Brikama UTG,1,1,2,1,13.284296,-16.654309,,,,
502,98.0,G_Brikama Cow@Brikama Cow,1,1,2,1,13.272474,-16.65124,,,,
503,101.0,G_Tendaba Camp,1,1,2,1,#VALUE!,#VALUE!,,,,
504,31.0,G_Kudang@Kudang,1,1,2,1,13.660402,-15.065687,,,,
505,14.0,G_Bulock@Bulock,1,1,2,1,13.183806,-16.405517,,,,
506,30.0,G_Kerewan@Kerewan,1,1,2,1,13.495771,-16.087754,,,,
507,28.0,G_Kanuma@Kanuma,1,1,2,1,13.497422,-16.509055,,,,
508,15.0,G_Bwiam@Bwiam,1,1,2,1,13.231701,-16.077638,,,,
509,53.0,G_Brusubi@Brusubi,1,1,2,1,13.398599,-16.726664,,,,
510,27.0,G_Kalaji@Kalaji,1,1,2,1,13.248927,-15.834784,,,,
511,18.0,G_Sibanor@Sibanor,1,1,2,1,13.207006,-16.191847,,,,
512,19.0,G_Farababanta@Farababanta,1,1,2,1,13.248195,-16.520254,,,,
513,41.0,G_Pakali Ba@Pakali Ba,1,1,2,1,13.517339,-15.243834,,,,
514,67.0,G_Farafenni@Farafenni,1,1,2,1,13.572049,-15.596224,,,,
515,5.0,G_Nemasu@Nemasu,1,1,2,1,13.416081,-16.690895,,,,
516,9.0,G_Bansang@Bansang,1,1,2,1,13.432151,-14.656466,,,,
517,17.0,G_Basse@Basse,1,1,2,1,13.31112,-14.213155,,,,
518,32.0,G_Kuntaur@Kuntaur,1,1,2,1,13.65549,-14.871401,,,,
519,74.0,G_Diabugu@Diabugu,1,1,2,1,13.389266,-14.402954,,,,
520,24.0,G_George Town@George Town,1,1,2,1,13.538347,-14.756994,,,,
521,11.0,G_Bijilo Tower@Bijilo Tower,1,1,2,1,13.420461,-16.727907,,,,
522,46.0,G_Numuyel@Numuyel,1,1,2,1,13.281032,-14.296418,,,,
523,40.0,G_Sukuta@Sukuta,1,1,2,1,13.419277,-16.705192,,,,
524,45.0,G_Kanilai Village@Kanilai Village,1,1,2,1,13.167975,-16.010147,,,,
525,63.0,G_Comium Residence@Comium Residence,1,1,2,1,13.437878,-16.718046,,,,
526,36.0,G_Mariama Kunda@Mariama Kunda,1,1,2,1,13.36486,-16.729403,,,,
527,69.0,G_Old Yundum@Old Yundum,1,1,2,1,13.368239,-16.686616,,,,
528,12.0,G_White House@White House,1,1,2,1,13.433214,-16.691999,,,,
529,10.0,G_SOS@SOS,1,1,2,1,13.441559,-16.70297,,,,
530,78.0,G_Future Lecce@Future Lecce,1,1,2,1,13.455391,-16.703818,,,,
531,7.0,G_Saad Raslan@Saad Raslan,1,1,2,1,13.457916,-16.662042,,,,
532,50.0,G_Soul Samba Street@Soul Samba Street,1,1,2,1,13.474328,-16.678082,,,,
533,37.0,G_Minteh Kunda@Minteh Kunda,1,1,2,1,13.572082,-15.865203,,,,
534,54.0,G_Bureng@Bureng,1,1,2,1,13.396583,-15.270363,,,,
535,73.0,G_Brufut_Mkt@Brufut_Mkt,1,1,2,1,13.380397,-16.749969,,,,
536,95.0,G_Sifo@Sifo,1,1,2,1,13.186536,-16.698533,,,,
537,96.0,G_Brikama Medina@Brikama Medina,1,1,2,1,13.262571,-16.652669,,,,
538,97.0,G_Busumbala Central@Busumbala Central,1,1,2,1,13.337755,-16.669288,,,,
539,99.0,G_Brikama Newtown@Brikama Newtown,1,1,2,1,13.276498,-16.639722,,,,
540,100.0,G_Farato@Farato,1,1,2,1,13.312439,-16.674004,,,,
541,102.0,G_Jambajelli@Jambajelli,1,1,2,1,13.281885,-16.733081,,,,
542,103.0,G_Sk Primary School@Sk Primary School,1,1,2,1,13.434873,-16.678891,,,,
543,104.0,G_Lamin 2@Lamin 2,1,1,2,1,13.38743,-16.636709,,,,
544,105.0,G_Banjul Hope Street@Banjul Hope Street,1,1,2,1,13.454936,-16.579679,,,,
545,106.0,G_Farato 2@Farato 2,1,1,2,1,13.31892,-16.65931,,,,
546,107.0,G_Brikama Sanchaba@Brikama Sanchaba,1,1,2,1,13.26667,-16.636266,,,,
547,108.0,G_Brufut Medina@Brufut Medina,1,1,2,1,13.374471,-16.766777,,,,
548,109.0,G_Kunkujang Keitaya@Kunkujang Keitaya,1,1,2,1,13.38308,-16.671482,,,,
549,110.0,G_Lamin Babylon@Lamin Babylon,1,1,2,1,13.352107,-16.628316,,,,
550,111.0,G_LK Sabiji Market@LK Sabiji Market,1,1,2,1,13.414763,-16.673953,,,,
551,112.0,G_Sukuta 2@Sukuta 2,1,1,2,1,13.405219,-16.712221,,,,
552,113.0,G_Jalambang@Jalambang,1,1,2,1,13.284791,-16.683275,,,,
553,114.0,G_Jabang@Jabang,1,1,2,1,13.363692,-16.712418,,,,
554,115.0,G_Kanifing Estate@Kanifing Estate,1,1,2,1,13.454845,-16.670718,,,,
555,116.0,G_Kerr Seringe@Kerr Seringe,1,1,2,1,13.428288,-16.725166,,,,
556,117.0,G_LK School@LK School,1,1,2,1,13.449622,-16.681927,,,,
557,118.0,G_Califonia@Califonia,1,1,2,1,13.382105,-16.73226,,,,
558,119.0,G_Mamuda@Mamuda,1,1,2,1,13.30083,-16.727552,,,,
559,120.0,G_Tujereng Estate@Tujereng Estate,1,1,2,1,13.292919,-16.78291,,,,
560,121.0,G_Brufut_Nema@Brufut_Nema,1,1,2,1,13.395149,-16.741104,,,,
561,122.0,G_Latriya@Latriya,1,1,2,1,13.329909,-16.707367,,,,
562,123.0,G_Old Yundum 3@Old Yundum 3,1,1,2,1,13.36629,-16.698078,,,,
563,124.0,G_Sanchaba Touba@Sanchaba Touba,1,1,2,1,13.431632,-16.705403,,,,
564,125.0,G_Sinchu Sorry@Sinchu Sorry,1,1,2,1,13.384708,-16.690123,,,,
565,126.0,G_Welingara@Welingara,1,1,2,1,13.402477,-16.665657,,,,
566,127.0,G_Yundum Medina@Yundum Medina,1,1,2,1,13.356411,-16.679857,,,,
567,128.0,G_Bakau Newtown@Bakau Newtown,1,1,2,1,13.473304,-16.684997,,,,
568,129.0,G_GTMI@GTMI,1,1,2,1,13.4633,-16.6777,,,,
569,130.0,G_Kololi-Palma Junction@Kololi-Palma Junction,1,1,2,1,13.450964,-16.711972,,,,
570,131.0,G_Yuna@Yuna,1,1,2,1,13.346569,-16.727217,,,,
571,132.0,G_Lamin Daranka@Lamin Daranka,1,1,2,1,13.378986,-16.632254,,,,
572,133.0,G_Manjai@Manjai,1,1,2,1,13.449818,-16.699864,,,,
573,134.0,G_Busumbala 4@Busumbala 4,1,1,2,1,13.322172,-16.649661,,,,
574,135.0,G_Lamin Sateyba@Lamin Sateyba,1,1,2,1,13.390692,-16.638504,,,,
575,136.0,G_Banjulinding@Banjulinding,1,1,2,1,13.378188,-16.661955,,,,
576,137.0,G_Bijilo II@Bijilo II,1,1,2,1,13.415244,-16.715273,,,,
577,94.0,G_Gouygui Market@Gouygui Market,1,1,2,1,13.345562,-16.689922,,,,
578,138.0,G_Gunjur 2@Gunjur 2,1,1,2,1,13.17956,-16.757304,,,,
579,139.0,G_Sanyang 2@Sanyang 2,1,1,2,1,13.26792,-16.753997,,,,
580,140.0,G_Brusubi 2@Brusubi 2,1,1,2,1,13.399941,-16.732439,,,,
581,141.0,G_Busumbala 3@Busumbala 3,1,1,2,1,13.322111,-16.677615,,,,
582,142.0,G_Brikama Jamisa II@Brikama Jamisa II,1,1,2,1,13.270704,-16.663858,,,,
583,143.0,G_Lamin Sanchaba@Lamin Sanchaba,1,1,2,1,13.381102,-16.651944,,,,
584,144.0,G_Yundum Medina II@Yundum Medina II,1,1,2,1,13.348298,-16.677543,,,,
585,145.0,G_Sinchu Alagie 2@Sinchu Alagie 2,1,1,2,1,13.375224,-16.682885,,,,
586,146.0,G_Allunghari@Allunghari,1,1,2,1,13.314534,-14.234234,,,,
587,147.0,G_Brufut TAF Estate@Brufut TAF Estate,1,1,2,1,13.388248,-16.761083,,,,
588,148.0,G_Mansajang@Mansajang,1,1,2,1,13.300362,-14.212259,,,,
589,,BSC,1,1,3,1,,,,,,
635,1.0,L07_Pakali Ba_1,2,1,1,1,13.517339,-15.243834,330,,,
636,2.0,L07_Pakali Ba_2,2,1,1,1,13.517339,-15.243834,270,,,
637,3.0,L07_Pakali Ba_3,2,1,1,1,13.517339,-15.243834,150,,,
638,4.0,L18_Pakali Ba_4,2,1,1,1,13.517339,-15.243834,330,,,
639,5.0,L18_Pakali Ba_5,2,1,1,1,13.517339,-15.243834,270,,,
640,6.0,L18_Pakali Ba_6,2,1,1,1,13.517339,-15.243834,150,,,
641,1.0,L07_kalaji_1,2,1,1,1,13.248927,-15.834784,160,,,
1112,1.0,L07_Dippa Kunda_1,2,1,1,1,13.44367,-16.6822,0,,,
1113,2.0,L07_Dippa Kunda_2,2,1,1,1,13.44367,-16.6822,120,,,
1114,3.0,L07_Dippa Kunda_3,2,1,1,1,13.44367,-16.6822,240,,,
1115,4.0,L18_Dippa Kunda_4,2,1,1,1,13.44367,-16.6822,0,,,
1116,5.0,L18_Dippa Kunda_5,2,1,1,1,13.44367,-16.6822,120,,,
1117,6.0,L18_Dippa Kunda_6,2,1,1,1,13.44367,-16.6822,240,,,
1118,7.0,L21_Dippa Kunda_7,2,1,1,1,13.44367,-16.6822,0,,,
1119,8.0,L21_Dippa Kunda_8,2,1,1,1,13.44367,-16.6822,120,,,
1120,9.0,L21_Dippa Kunda_9,2,1,1,1,13.44367,-16.6822,240,,,
1121,10.0,L18_Dippa Kunda_10,2,1,1,1,13.44367,-16.6822,0,,,
1122,11.0,L18_Dippa Kunda_11,2,1,1,1,13.44367,-16.6822,120,,,
1123,12.0,L18_Dippa Kunda_12,2,1,1,1,13.44367,-16.6822,240,,,
1157,1.0,L07_Sk Primary School_1,2,1,1,1,13.434873,-16.678891,0,,,
1158,2.0,L07_Sk Primary School_2,2,1,1,1,13.434873,-16.678891,120,,,
1159,3.0,L07_Sk Primary School_3,2,1,1,1,13.434873,-16.678891,240,,,
1160,4.0,L18_Sk Primary School_4,2,1,1,1,13.434873,-16.678891,0,,,
1161,5.0,L18_Sk Primary School_5,2,1,1,1,13.434873,-16.678891,120,,,
1162,6.0,L18_Sk Primary School_6,2,1,1,1,13.434873,-16.678891,240,,,
1163,7.0,L21_Sk Primary School_7,2,1,1,1,13.434873,-16.678891,0,,,
1164,8.0,L21_Sk Primary School_8,2,1,1,1,13.434873,-16.678891,120,,,
1165,9.0,L21_Sk Primary School_9,2,1,1,1,13.434873,-16.678891,240,,,
1388,10.0,L18_Nema kunku II_10,2,1,1,1,#N/A,#N/A,#N/A,,,
1389,11.0,L18_Nema kunku II_11,2,1,1,1,#N/A,#N/A,#N/A,,,
1390,12.0,L18_Nema kunku II_12,2,1,1,1,#N/A,#N/A,#N/A,,,
1466,10.0,L18_Manjai ii_10,2,1,1,1,13.439661,-16.693178,40,,,
1467,11.0,L18_Manjai ii_11,2,1,1,1,13.439661,-16.693178,170,,,
1468,12.0,L18_Manjai ii_12,2,1,1,1,13.439661,-16.693178,290,,,
1310,4.0,L18_Brusubi 2_4,2,1,1,1,13.399941,-16.732439,60,5.0,15.0,1.0
1571,1.0,L07_Sifo_1,2,1,1,1,13.186536,-16.698533,15,,,
1572,2.0,L07_Sifo_2,2,1,1,1,13.186536,-16.698533,135,,,
1573,3.0,L07_Sifo_3,2,1,1,1,13.186536,-16.698533,255,,,
1574,4.0,L18_Sifo_4,2,1,1,1,13.186536,-16.698533,15,,,
1575,5.0,L18_Sifo_5,2,1,1,1,13.186536,-16.698533,135,,,
1576,6.0,L18_Sifo_6,2,1,1,1,13.186536,-16.698533,255,,,
1577,7.0,L21_Sifo_7,2,1,1,1,13.186536,-16.698533,15,,,
1578,8.0,L21_Sifo_8,2,1,1,1,13.186536,-16.698533,135,,,
1579,9.0,L21_Sifo_9,2,1,1,1,13.186536,-16.698533,255,,,
1601,10.0,L18_Lk School_10,2,1,1,1,13.449622,-16.681927,108,,,
1602,11.0,L18_Lk School_11,2,1,1,1,13.449622,-16.681927,225,,,
1603,12.0,L18_Lk School_12,2,1,1,1,13.449622,-16.681927,350,,,
1685,1.0,L18_Test_1,2,1,1,1,#N/A,#N/A,#N/A,,,
1439,4.0,L18_Brufut Medina_4,2,1,1,1,13.374471,-16.766777,65,5.0,26.0,1.0
2189,3.0,L07_Brusubi turntable_3,2,1,1,1,13.408972,-16.731188,280,,,
2205,1.0,L07_kubariko_1,2,1,1,1,13.332168,-16.629319,15,,,
2401,4034.0,Pakali Ba,2,1,2,1,13.517339,-15.243834,,,,
2449,4246.0,Dippa Kunda,2,1,2,1,13.44367,-16.6822,,,,
2453,4211.0,Sk Primary School,2,1,2,1,13.434873,-16.678891,,,,
2479,4128.0,L_Manjai II,2,1,2,1,#N/A,#N/A,,,,
2489,4127.0,Sifo,2,1,2,1,13.186536,-16.698533,,,,
2500,2264.0,Test,2,1,2,1,#N/A,#N/A,,,,
2515,4132.0,Kerr Seringe,2,1,2,1,#N/A,#N/A,,,,
1,3.0,G09_Banjul Tower_1,1,1,1,1,13.458224,-16.584069,60,3.0,21.0,1.0
2,4.0,G09_Banjul Tower_2,1,1,1,1,13.458224,-16.584069,170,3.0,21.0,1.0
3,5.0,G09_Banjul Tower_3,1,1,1,1,13.458224,-16.584069,280,3.0,21.0,1.0
4,6.0,G09_HQ_1,1,1,1,1,13.455589,-16.683532,0,4.0,12.0,1.0
5,8.0,G09_Kaiaf_2,1,1,1,1,13.411158,-15.610371,170,1.0,24.0,2.0
6,9.0,G09_Dobson_1,1,1,1,1,13.449784,-16.575675,130,3.0,21.0,1.0
7,10.0,G09_Dobson_2,1,1,1,1,13.449784,-16.575675,215,3.0,21.0,1.0
8,11.0,G09_Dobson_3,1,1,1,1,13.449784,-16.575675,320,3.0,21.0,1.0
9,15.0,G09_Kaiaf_3,1,1,1,1,13.411158,-15.610371,280,1.0,24.0,2.0
10,16.0,G09_Kaur_1,1,1,1,1,13.697851,-15.326958,60,6.0,22.0,2.0
11,17.0,G09_Kaur_2,1,1,1,1,13.697851,-15.326958,140,6.0,22.0,2.0
12,19.0,G09_Airport_1,1,1,1,1,13.349056,-16.658,100,5.0,15.0,1.0
13,20.0,G09_Airport_2,1,1,1,1,13.349056,-16.658,230,5.0,15.0,1.0
14,21.0,G09_Airport_3,1,1,1,1,13.349056,-16.658,330,5.0,15.0,1.0
15,22.0,G09_Arab Islamic Bank_1,1,1,1,1,13.445166,-16.674637,90,4.0,12.0,1.0
16,23.0,G09_Arab Islamic Bank_2,1,1,1,1,13.445166,-16.674637,190,4.0,12.0,1.0
17,24.0,G09_Arab Islamic Bank_3,1,1,1,1,13.445166,-16.674637,330,4.0,12.0,1.0
18,25.0,G09_Bajakunda_1,1,1,1,1,13.481843,-14.053507,60,2.0,1.0,2.0
19,37.0,G09_Brikama Ba_1,1,1,1,1,13.532752,-14.925251,180,7.0,25.0,2.0
20,38.0,G09_Jambur_2,1,1,1,1,13.307093,-16.696712,160,5.0,3.0,1.0
21,39.0,G09_Brikama Ba_2,1,1,1,1,13.532752,-14.925251,240,7.0,25.0,2.0
22,40.0,G09_Jambur_3,1,1,1,1,13.307093,-16.696712,330,5.0,3.0,1.0
23,41.0,G09_Basori_1,1,1,1,1,13.22767,-16.579877,160,5.0,15.0,2.0
24,42.0,G09_Basori_2,1,1,1,1,13.22767,-16.579877,250,5.0,15.0,2.0
25,49.0,G09_White Building_1,1,1,1,1,13.465954,-16.691005,0,4.0,12.0,1.0
26,50.0,G09_White Building_2,1,1,1,1,13.465954,-16.691005,160,4.0,12.0,1.0
27,51.0,G09_White Building_3,1,1,1,1,13.465954,-16.691005,240,4.0,12.0,1.0
28,55.0,G09_Earth Station_1,1,1,1,1,13.401895,-16.653944,110,4.0,12.0,1.0
29,56.0,G09_Earth Station_2,1,1,1,1,13.401895,-16.653944,200,4.0,12.0,1.0
30,57.0,G09_Earth Station_3,1,1,1,1,13.401895,-16.653944,20,4.0,12.0,1.0
31,64.0,G09_Fass_1,1,1,1,1,13.564781,-16.428517,20,6.0,28.0,2.0
32,65.0,G09_Fass_2,1,1,1,1,13.564781,-16.428517,130,6.0,28.0,2.0
33,27.0,G09_Bajakunda_3,1,1,1,1,13.481843,-14.053507,270,2.0,1.0,2.0
34,66.0,G09_Fass_3,1,1,1,1,13.564781,-16.428517,240,6.0,28.0,2.0
35,67.0,G09_Fatoto_1,1,1,1,1,13.39304,-13.907269,10,2.0,10.0,2.0
36,68.0,G09_Fatoto_2,1,1,1,1,13.39304,-13.907269,115,2.0,10.0,2.0
37,69.0,G09_Fatoto_3,1,1,1,1,13.39304,-13.907269,180,2.0,10.0,2.0
38,76.0,G09_Gunjur_1,1,1,1,1,13.16955,-16.760743,0,5.0,3.0,1.0
39,77.0,G09_Gunjur_2,1,1,1,1,13.16955,-16.760743,100,5.0,3.0,1.0
40,78.0,G09_Gunjur_3,1,1,1,1,13.16955,-16.760743,200,5.0,3.0,1.0
41,79.0,G09_Senegambia_1,1,1,1,1,13.44226,-16.721727,0,4.0,12.0,1.0
42,80.0,G09_Senegambia_2,1,1,1,1,13.44226,-16.721727,135,4.0,12.0,1.0
43,81.0,G09_Senegambia_3,1,1,1,1,13.44226,-16.721727,260,4.0,12.0,1.0
44,88.0,G09_Sukuta Jabang Highway_2,1,1,1,1,13.394479,-16.705676,125,5.0,15.0,1.0
45,89.0,G09_Sukuta Jabang Highway_3,1,1,1,1,13.394479,-16.705676,215,5.0,15.0,1.0
46,90.0,G09_Jabang Estate_1,1,1,1,1,13.356374,-16.705119,95,5.0,15.0,1.0
47,101.0,G09_Kwenilla_2,1,1,1,1,13.396557,-15.793325,230,1.0,23.0,2.0
48,103.0,G09_Lamin_1,1,1,1,1,13.383897,-16.644597,20,5.0,15.0,1.0
49,104.0,G09_Lamin_2,1,1,1,1,13.383897,-16.644597,120,5.0,15.0,1.0
50,105.0,G09_Lamin_3,1,1,1,1,13.383897,-16.644597,240,5.0,15.0,1.0
51,106.0,G09_Mansakonko_1,1,1,1,1,13.455152,-15.535005,70,1.0,2.0,2.0
52,107.0,G09_Mansakonko_2,1,1,1,1,13.455152,-15.535005,140,1.0,2.0,2.0
53,108.0,G09_Mansakonko_3,1,1,1,1,13.455152,-15.535005,240,1.0,2.0,2.0
54,115.0,G09_Ndugu Kebbeh_1,1,1,1,1,13.542507,-16.319659,120,6.0,28.0,2.0
55,116.0,G09_Ndugu Kebbeh_2,1,1,1,1,13.542507,-16.319659,230,6.0,28.0,2.0
56,117.0,G09_Ndugu Kebbeh_3,1,1,1,1,13.542507,-16.319659,330,6.0,28.0,2.0
57,130.0,G09_Sanyang_1,1,1,1,1,13.268192,-16.762662,30,5.0,3.0,1.0
58,131.0,G09_Sanyang_2,1,1,1,1,13.268192,-16.762662,160,5.0,3.0,1.0
59,132.0,G09_Sanyang_3,1,1,1,1,13.268192,-16.762662,280,5.0,3.0,1.0
60,133.0,G09_Serra kunda mkt bldg_1,1,1,1,1,13.439217,-16.682959,70,4.0,12.0,1.0
61,100.0,G09_Kwenilla_1,1,1,1,1,13.396557,-15.793325,80,1.0,23.0,2.0
62,102.0,G09_Kwenilla_3,1,1,1,1,13.396557,-15.793325,340,1.0,23.0,2.0
63,134.0,G09_Serra kunda mkt bldg_2,1,1,1,1,13.439217,-16.682959,200,4.0,12.0,1.0
64,135.0,G09_Serra kunda mkt bldg_3,1,1,1,1,13.439217,-16.682959,335,4.0,12.0,1.0
65,145.0,G09_Sinchubaliya_1,1,1,1,1,13.393696,-16.674208,30,5.0,15.0,1.0
66,146.0,G09_Sinchubaliya_2,1,1,1,1,13.393696,-16.674208,150,5.0,15.0,1.0
67,147.0,G09_Sinchubaliya_3,1,1,1,1,13.393696,-16.674208,230,5.0,15.0,1.0
68,148.0,G09_Somo Bldg_1,1,1,1,1,13.425182,-16.674104,65,4.0,12.0,1.0
69,149.0,G09_Somo Bldg_2,1,1,1,1,13.425182,-16.674104,190,4.0,12.0,1.0
70,154.0,G09_Sudowol_1,1,1,1,1,13.361017,-13.99968,80,2.0,10.0,2.0
71,155.0,G09_Sudowol_2,1,1,1,1,13.361017,-13.99968,140,2.0,10.0,2.0
72,156.0,G09_Sudowol_3,1,1,1,1,13.361017,-13.99968,260,2.0,10.0,2.0
73,166.0,G09_Bundung_1,1,1,1,1,13.426453,-16.6837,20,4.0,12.0,1.0
74,167.0,G09_Bundung_2,1,1,1,1,13.426453,-16.6837,190,4.0,12.0,1.0
75,168.0,G09_Bundung_3,1,1,1,1,13.426453,-16.6837,300,4.0,12.0,1.0
76,169.0,G09_Faji Kunda_1,1,1,1,1,13.419903,-16.667111,80,4.0,12.0,1.0
77,170.0,G09_Faji Kunda_2,1,1,1,1,13.419903,-16.667111,190,4.0,12.0,1.0
78,171.0,G09_Faji Kunda_3,1,1,1,1,13.419903,-16.667111,300,4.0,12.0,1.0
79,172.0,G09_New Jeshwang_1,1,1,1,1,13.436689,-16.674701,80,4.0,12.0,1.0
80,173.0,G09_New Jeshwang_2,1,1,1,1,13.436689,-16.674701,190,4.0,12.0,1.0
81,174.0,G09_New Jeshwang_3,1,1,1,1,13.436689,-16.674701,280,4.0,12.0,1.0
82,175.0,G09_Kabafita_1,1,1,1,1,13.28309,-16.636769,90,5.0,13.0,1.0
83,178.0,G09_Jabang Estate_2,1,1,1,1,13.356374,-16.705119,190,5.0,15.0,1.0
84,179.0,G09_Jabang Estate_3,1,1,1,1,13.356374,-16.705119,310,5.0,15.0,1.0
85,180.0,G09_Mandinari_1,1,1,1,1,13.367586,-16.60632,20,5.0,15.0,1.0
86,181.0,G09_Mandinari_2,1,1,1,1,13.367586,-16.60632,140,5.0,15.0,1.0
87,182.0,G09_Mandinari_3,1,1,1,1,13.367586,-16.60632,240,5.0,15.0,1.0
88,183.0,G09_Illiassa_1,1,1,1,1,13.565307,-15.748364,20,6.0,27.0,2.0
89,187.0,G09_Essau_2,1,1,1,1,13.482011,-16.522206,125,6.0,28.0,2.0
90,188.0,G09_Essau_3,1,1,1,1,13.482011,-16.522206,270,6.0,28.0,2.0
91,189.0,G09_Denton Bridge_1,1,1,1,1,13.468615,-16.629499,95,4.0,12.0,1.0
92,190.0,G09_Denton Bridge_2,1,1,1,1,13.468615,-16.629499,265,4.0,12.0,1.0
93,193.0,G09_Kubariko_3,1,1,1,1,13.332168,-16.629319,240,5.0,15.0,1.0
94,194.0,G09_Farato-Paradise City_1,1,1,1,1,13.307454,-16.658267,75,5.0,13.0,1.0
95,195.0,G09_Farato-Paradise City_2,1,1,1,1,13.307454,-16.658267,195,5.0,13.0,1.0
96,192.0,G09_Kubariko_2,1,1,1,1,13.332168,-16.629319,105,5.0,15.0,1.0
97,160.0,G09_Tabokoto_1,1,1,1,1,13.410206,-16.668953,50,4.0,12.0,1.0
98,161.0,G09_Tabokoto_2,1,1,1,1,13.410206,-16.668953,120,4.0,12.0,1.0
99,162.0,G09_Tabokoto_3,1,1,1,1,13.410206,-16.668953,260,4.0,12.0,1.0
100,191.0,G09_Kubariko_1,1,1,1,1,13.332168,-16.629319,15,5.0,15.0,1.0
101,210.0,G09_Ebo Town_1,1,1,1,1,13.436607,-16.669311,60,4.0,12.0,1.0
102,211.0,G09_Ebo Town_2,1,1,1,1,13.436607,-16.669311,150,4.0,12.0,1.0
103,214.0,G09_Busumbala II_2,1,1,1,1,13.339416,-16.682984,120,5.0,15.0,1.0
104,215.0,G09_Busumbala II_3,1,1,1,1,13.339416,-16.682984,255,5.0,15.0,1.0
105,216.0,G09_Farafenni 2_1,1,1,1,1,13.575382,-15.601391,40,6.0,17.0,2.0
106,217.0,G09_Busumbala_1,1,1,1,1,13.320299,-16.667309,330,5.0,15.0,1.0
107,218.0,G09_Busumbala_2,1,1,1,1,13.320299,-16.667309,95,5.0,15.0,1.0
108,219.0,G09_Busumbala_3,1,1,1,1,13.320299,-16.667309,240,5.0,15.0,1.0
109,220.0,G09_Brikama II_1,1,1,1,1,13.266641,-16.642473,120,5.0,13.0,1.0
110,221.0,G09_Brikama II_2,1,1,1,1,13.266641,-16.642473,200,5.0,13.0,1.0
111,222.0,G09_Brikama II_3,1,1,1,1,13.266641,-16.642473,320,5.0,13.0,1.0
112,223.0,G09_Kartong_1,1,1,1,1,13.097707,-16.761586,20,5.0,3.0,1.0
113,225.0,G09_Farafenni 2_3,1,1,1,1,13.575382,-15.601391,250,6.0,17.0,2.0
115,228.0,G09_Brikama Tower_1,1,1,1,1,13.274743,-16.649217,30,5.0,13.0,1.0
116,229.0,G09_Brikama Tower_2,1,1,1,1,13.274743,-16.649217,170,5.0,13.0,1.0
117,230.0,G09_Brikama Tower_3,1,1,1,1,13.274743,-16.649217,290,5.0,13.0,1.0
118,240.0,G09_Kartong_2,1,1,1,1,13.097707,-16.761586,90,5.0,3.0,1.0
119,241.0,G09_Kartong_3,1,1,1,1,13.097707,-16.761586,160,5.0,3.0,1.0
120,242.0,G09_Marakissa_1,1,1,1,1,13.216425,-16.648561,50,5.0,13.0,1.0
121,243.0,G09_Marakissa_2,1,1,1,1,13.216425,-16.648561,160,5.0,13.0,1.0
122,245.0,G09_Brikama Ba_3,1,1,1,1,13.532752,-14.925251,340,7.0,25.0,2.0
123,253.0,G09_Nema Kunku_1,1,1,1,1,13.402433,-16.683128,10,5.0,15.0,1.0
124,254.0,G09_Nema Kunku_2,1,1,1,1,13.402433,-16.683128,140,5.0,15.0,1.0
125,255.0,G09_Nema Kunku_3,1,1,1,1,13.402433,-16.683128,255,5.0,15.0,1.0
126,256.0,G09_Kombo Kerewan_1,1,1,1,1,13.371528,-16.625793,90,5.0,15.0,1.0
127,257.0,G09_Kombo Kerewan_2,1,1,1,1,13.371528,-16.625793,150,5.0,15.0,1.0
128,258.0,G09_Kombo Kerewan_3,1,1,1,1,13.371528,-16.625793,230,5.0,15.0,1.0
129,259.0,G09_Somita_1,1,1,1,1,13.205891,-16.305407,110,5.0,7.0,2.0
130,260.0,G09_Somita_2,1,1,1,1,13.205891,-16.305407,190,5.0,7.0,2.0
131,261.0,G09_Somita_3,1,1,1,1,13.205891,-16.305407,270,5.0,7.0,2.0
132,272.0,G09_Jiboroh_1,1,1,1,1,13.185054,-16.577187,90,5.0,26.0,2.0
133,273.0,G09_Jiboroh_2,1,1,1,1,13.185054,-16.577187,190,5.0,26.0,2.0
134,274.0,G09_Jiboroh_3,1,1,1,1,13.185054,-16.577187,340,5.0,26.0,2.0
135,289.0,G09_Marakissa_3,1,1,1,1,13.216425,-16.648561,240,5.0,13.0,1.0
139,144.0,G09_Sheraton_3,1,1,1,1,13.395622,-16.753732,220,5.0,15.0,1.0
140,26.0,G09_Bajakunda_2,1,1,1,1,13.481843,-14.053507,200,2.0,1.0,2.0
141,275.0,G09_Bakadagi_1,1,1,1,1,13.302762,-14.387321,35,2.0,5.0,2.0
142,276.0,G09_Bakadagi_2,1,1,1,1,13.302762,-14.387321,170,2.0,5.0,2.0
143,277.0,G09_Bakadagi_3,1,1,1,1,13.302762,-14.387321,280,2.0,5.0,2.0
144,142.0,G09_Sheraton_1,1,1,1,1,13.395622,-16.753732,60,5.0,15.0,1.0
145,143.0,G09_Sheraton_2,1,1,1,1,13.395622,-16.753732,160,5.0,15.0,1.0
146,12.0,G09_Gamstar_1,1,1,1,1,13.453018,-16.57429,185,3.0,21.0,1.0
147,13.0,G09_Gamstar_2,1,1,1,1,13.453018,-16.57429,280,3.0,21.0,1.0
148,14.0,G09_Gamstar_3,1,1,1,1,13.453018,-16.57429,310,3.0,21.0,1.0
149,70.0,G09_Gamtel Bakau_1,1,1,1,1,13.479507,-16.66756,0,4.0,12.0,1.0
150,71.0,G09_Gamtel Bakau_2,1,1,1,1,13.479507,-16.66756,100,4.0,12.0,1.0
151,72.0,G09_Gamtel Bakau_3,1,1,1,1,13.479507,-16.66756,300,4.0,12.0,1.0
152,31.0,G09_Bato Kunku_1,1,1,1,1,13.325792,-16.798796,10,5.0,3.0,1.0
153,32.0,G09_Bato Kunku_2,1,1,1,1,13.325792,-16.798796,90,5.0,3.0,1.0
154,33.0,G09_Bato Kunku_3,1,1,1,1,13.325792,-16.798796,170,5.0,3.0,1.0
155,7.0,G09_Kaiaf_1,1,1,1,1,13.411158,-15.610371,55,1.0,24.0,2.0
156,279.0,G09_Ngeyen Sanjal_1,1,1,1,1,13.592373,-15.44222,30,6.0,22.0,2.0
157,280.0,G09_Ngeyen Sanjal_2,1,1,1,1,13.592373,-15.44222,150,6.0,22.0,2.0
158,281.0,G09_Ngeyen Sanjal_3,1,1,1,1,13.592373,-15.44222,300,6.0,22.0,2.0
159,207.0,G09_Tanji_2,1,1,1,1,13.358275,-16.797257,150,5.0,3.0,1.0
160,208.0,G09_Tanji_3,1,1,1,1,13.358275,-16.797257,245,5.0,3.0,1.0
161,209.0,G09_Busumbala II_1,1,1,1,1,13.339416,-16.682984,15,5.0,15.0,1.0
162,176.0,G09_Kabafita_2,1,1,1,1,13.28309,-16.636769,200,5.0,13.0,1.0
163,177.0,G09_Kabafita_3,1,1,1,1,13.28309,-16.636769,320,5.0,13.0,1.0
164,250.0,G09_Brikama UTG_1,1,1,1,1,13.284296,-16.654309,30,5.0,13.0,1.0
165,251.0,G09_Brikama UTG_2,1,1,1,1,13.284296,-16.654309,160,5.0,13.0,1.0
166,252.0,G09_Brikama UTG_3,1,1,1,1,13.284296,-16.654309,280,5.0,13.0,1.0
167,232.0,G09_Brikama Cow_3,1,1,1,1,13.272474,-16.65124,320,5.0,13.0,1.0
169,94.0,G09_Kudang_1,1,1,1,1,13.660402,-15.065687,0,7.0,9.0,2.0
170,95.0,G09_Kudang_2,1,1,1,1,13.660402,-15.065687,120,7.0,9.0,2.0
171,96.0,G09_Kudang_3,1,1,1,1,13.660402,-15.065687,200,7.0,9.0,2.0
172,43.0,G09_Basori_3,1,1,1,1,13.22767,-16.579877,350,5.0,15.0,2.0
173,44.0,G09_Bulock_2,1,1,1,1,13.183806,-16.405517,180,5.0,7.0,2.0
174,45.0,G09_Bulock_3,1,1,1,1,13.183806,-16.405517,290,5.0,7.0,2.0
175,282.0,G09_Bulock_1,1,1,1,1,13.183806,-16.405517,80,5.0,7.0,2.0
176,91.0,G09_Kerewan_1,1,1,1,1,13.495771,-16.087754,30,6.0,27.0,2.0
177,93.0,G09_Kerewan_3,1,1,1,1,13.495771,-16.087754,290,6.0,27.0,2.0
178,92.0,G09_Kerewan_2,1,1,1,1,13.495771,-16.087754,125,6.0,27.0,2.0
179,85.0,G09_Kanuma_1,1,1,1,1,13.497422,-16.509055,20,6.0,28.0,2.0
180,86.0,G09_Kanuma_2,1,1,1,1,13.497422,-16.509055,120,6.0,28.0,2.0
181,87.0,G09_Kanuma_3,1,1,1,1,13.497422,-16.509055,250,6.0,28.0,2.0
182,46.0,G09_Bwiam_1,1,1,1,1,13.231701,-16.077638,40,5.0,6.0,2.0
183,47.0,G09_Bwiam_2,1,1,1,1,13.231701,-16.077638,100,5.0,6.0,2.0
184,48.0,G09_Bwiam_3,1,1,1,1,13.231701,-16.077638,230,5.0,6.0,2.0
185,201.0,G09_Brusubi_1,1,1,1,1,13.398599,-16.726664,40,5.0,15.0,1.0
186,202.0,G09_Brusubi_2,1,1,1,1,13.398599,-16.726664,120,5.0,15.0,1.0
187,203.0,G09_Brusubi_3,1,1,1,1,13.398599,-16.726664,230,5.0,15.0,1.0
188,82.0,G09_Kalaji_1,1,1,1,1,13.248927,-15.834784,160,5.0,20.0,2.0
189,83.0,G09_Kalaji_2,1,1,1,1,13.248927,-15.834784,250,5.0,20.0,2.0
190,84.0,G09_Kalaji_3,1,1,1,1,13.248927,-15.834784,350,5.0,20.0,2.0
191,139.0,G09_Sibanor_1,1,1,1,1,13.207006,-16.191847,80,5.0,7.0,2.0
192,140.0,G09_Sibanor_2,1,1,1,1,13.207006,-16.191847,170,5.0,7.0,2.0
193,141.0,G09_Sibanor_3,1,1,1,1,13.207006,-16.191847,270,5.0,7.0,2.0
194,58.0,G09_Farababanta_1,1,1,1,1,13.248195,-16.520254,20,5.0,26.0,2.0
195,59.0,G09_Farababanta_2,1,1,1,1,13.248195,-16.520254,140,5.0,26.0,2.0
196,60.0,G09_Farababanta_3,1,1,1,1,13.248195,-16.520254,280,5.0,26.0,2.0
200,61.0,G09_Farafenni_1,1,1,1,1,13.572049,-15.596224,90,6.0,17.0,2.0
201,62.0,G09_Farafenni_2,1,1,1,1,13.572049,-15.596224,170,6.0,17.0,2.0
202,63.0,G09_Farafenni_3,1,1,1,1,13.572049,-15.596224,280,6.0,17.0,2.0
203,198.0,G09_Farato-Paradise City_3,1,1,1,1,13.307454,-16.658267,315,5.0,13.0,1.0
204,118.0,G09_Nemasu_1,1,1,1,1,13.416081,-16.690895,50,5.0,15.0,1.0
205,119.0,G09_Nemasu_2,1,1,1,1,13.416081,-16.690895,180,5.0,15.0,1.0
206,120.0,G09_Nemasu_3,1,1,1,1,13.416081,-16.690895,280,5.0,15.0,1.0
207,28.0,G09_Bansang_1,1,1,1,1,13.432151,-14.656466,30,2.0,25.0,2.0
208,30.0,G09_Jambur_1,1,1,1,1,13.307093,-16.696712,60,5.0,3.0,1.0
209,290.0,G09_Bansang_3,1,1,1,1,13.432151,-14.656466,280,2.0,25.0,2.0
210,29.0,G09_Bansang_2,1,1,1,1,13.432151,-14.656466,160,2.0,25.0,2.0
211,224.0,G09_Farafenni 2_2,1,1,1,1,13.575382,-15.601391,135,6.0,17.0,2.0
212,199.0,G09_Tanji_1,1,1,1,1,13.358275,-16.797257,45,5.0,3.0,1.0
213,200.0,G09_Basse_1,1,1,1,1,13.31112,-14.213155,0,2.0,14.0,2.0
214,212.0,G09_Basse_2,1,1,1,1,13.31112,-14.213155,160,2.0,14.0,2.0
215,213.0,G09_Basse_3,1,1,1,1,13.31112,-14.213155,280,2.0,14.0,2.0
216,97.0,G09_Kuntaur_1,1,1,1,1,13.65549,-14.871401,120,7.0,11.0,2.0
217,52.0,G09_Diabugu_1,1,1,1,1,13.389266,-14.402954,80,2.0,16.0,2.0
218,53.0,G09_Diabugu_2,1,1,1,1,13.389266,-14.402954,200,2.0,16.0,2.0
219,54.0,G09_Diabugu_3,1,1,1,1,13.389266,-14.402954,280,2.0,16.0,2.0
220,73.0,G09_Sukuta Jabang Highway_1,1,1,1,1,13.394479,-16.705676,25,5.0,15.0,1.0
221,74.0,G09_George Town_2,1,1,1,1,13.538347,-14.756994,240,7.0,8.0,2.0
222,75.0,G09_George Town_3,1,1,1,1,13.538347,-14.756994,340,7.0,8.0,2.0
223,285.0,G09_George Town_1,1,1,1,1,13.538347,-14.756994,120,7.0,8.0,2.0
224,34.0,G09_Bijilo Tower_1,1,1,1,1,13.420461,-16.727907,90,5.0,15.0,1.0
225,35.0,G09_Bijilo Tower_2,1,1,1,1,13.420461,-16.727907,250,5.0,15.0,1.0
226,36.0,G09_Bijilo Tower_3,1,1,1,1,13.420461,-16.727907,345,5.0,15.0,1.0
227,123.0,G09_Numuyel_3,1,1,1,1,13.281032,-14.296418,280,2.0,14.0,2.0
228,122.0,G09_Numuyel_2,1,1,1,1,13.281032,-14.296418,200,2.0,14.0,2.0
229,121.0,G09_Numuyel_1,1,1,1,1,13.281032,-14.296418,120,2.0,14.0,2.0
230,157.0,G09_Sukuta_1,1,1,1,1,13.419277,-16.705192,50,5.0,15.0,1.0
231,158.0,G09_Sukuta_2,1,1,1,1,13.419277,-16.705192,170,5.0,15.0,1.0
232,159.0,G09_Sukuta_3,1,1,1,1,13.419277,-16.705192,290,5.0,15.0,1.0
233,196.0,G09_Kanilai Village_1,1,1,1,1,13.167975,-16.010147,60,5.0,6.0,2.0
234,197.0,G09_Kanilai Village_2,1,1,1,1,13.167975,-16.010147,230,5.0,6.0,2.0
235,278.0,G09_Kanilai Village_3,1,1,1,1,13.167975,-16.010147,330,5.0,6.0,2.0
236,234.0,G09_Comium Residence_1,1,1,1,1,13.437878,-16.718046,40,4.0,12.0,1.0
237,235.0,G09_Comium Residence_2,1,1,1,1,13.437878,-16.718046,140,4.0,12.0,1.0
238,236.0,G09_Comium Residence_3,1,1,1,1,13.437878,-16.718046,275,4.0,12.0,1.0
239,109.0,G09_Mariama Kunda_1,1,1,1,1,13.36486,-16.729403,120,5.0,15.0,1.0
240,110.0,G09_Mariama Kunda_2,1,1,1,1,13.36486,-16.729403,240,5.0,15.0,1.0
241,111.0,G09_Mariama Kunda_3,1,1,1,1,13.36486,-16.729403,340,5.0,15.0,1.0
242,204.0,G09_Old Yundum_1,1,1,1,1,13.368239,-16.686616,160,5.0,15.0,1.0
243,205.0,G09_Old Yundum_2,1,1,1,1,13.368239,-16.686616,230,5.0,15.0,1.0
244,206.0,G09_Old Yundum_3,1,1,1,1,13.368239,-16.686616,300,5.0,15.0,1.0
246,184.0,G09_Illiassa_2,1,1,1,1,13.565307,-15.748364,180,6.0,27.0,2.0
247,185.0,G09_Illiassa_3,1,1,1,1,13.565307,-15.748364,260,6.0,27.0,2.0
248,186.0,G09_Essau_1,1,1,1,1,13.482011,-16.522206,60,6.0,28.0,2.0
249,163.0,G09_White House_1,1,1,1,1,13.433214,-16.691999,60,4.0,12.0,1.0
250,164.0,G09_White House_2,1,1,1,1,13.433214,-16.691999,210,4.0,12.0,1.0
251,165.0,G09_White House_3,1,1,1,1,13.433214,-16.691999,320,4.0,12.0,1.0
252,127.0,G09_SOS_1,1,1,1,1,13.441559,-16.70297,60,4.0,12.0,1.0
253,128.0,G09_SOS_2,1,1,1,1,13.441559,-16.70297,200,4.0,12.0,1.0
254,129.0,G09_SOS_3,1,1,1,1,13.441559,-16.70297,315,4.0,12.0,1.0
255,0.0,G09_Future Lecce_1,1,1,1,1,13.455391,-16.703818,80,4.0,12.0,1.0
256,1.0,G09_Future Lecce_2,1,1,1,1,13.455391,-16.703818,160,4.0,12.0,1.0
257,2.0,G09_Future Lecce_3,1,1,1,1,13.455391,-16.703818,240,4.0,12.0,1.0
258,18.0,G09_Kaur_3,1,1,1,1,13.697851,-15.326958,270,6.0,22.0,2.0
259,136.0,G09_Saad Raslan_1,1,1,1,1,13.457916,-16.662042,30,4.0,12.0,1.0
260,137.0,G09_Saad Raslan_2,1,1,1,1,13.457916,-16.662042,180,4.0,12.0,1.0
261,138.0,G09_Saad Raslan_3,1,1,1,1,13.457916,-16.662042,300,4.0,12.0,1.0
262,151.0,G09_Soul Samba Street_1,1,1,1,1,13.474328,-16.678082,40,4.0,12.0,1.0
263,152.0,G09_Soul Samba Street_2,1,1,1,1,13.474328,-16.678082,140,4.0,12.0,1.0
264,153.0,G09_Soul Samba Street_3,1,1,1,1,13.474328,-16.678082,295,4.0,12.0,1.0
265,112.0,G09_Minteh Kunda_1,1,1,1,1,13.572082,-15.865203,100,6.0,4.0,2.0
266,113.0,G09_Minteh Kunda_2,1,1,1,1,13.572082,-15.865203,180,6.0,4.0,2.0
267,114.0,G09_Minteh Kunda_3,1,1,1,1,13.572082,-15.865203,320,6.0,4.0,2.0
268,98.0,G09_Kuntaur_2,1,1,1,1,13.65549,-14.871401,210,7.0,11.0,2.0
269,99.0,G09_Kuntaur_3,1,1,1,1,13.65549,-14.871401,320,7.0,11.0,2.0
270,263.0,G09_Bureng_1,1,1,1,1,13.396583,-15.270363,140,1.0,19.0,2.0
271,264.0,G09_Bureng_2,1,1,1,1,13.396583,-15.270363,210,1.0,19.0,2.0
272,265.0,G09_Bureng_3,1,1,1,1,13.396583,-15.270363,300,1.0,19.0,2.0
273,150.0,G09_Somo Bldg_3,1,1,1,1,13.425182,-16.674104,280,4.0,12.0,1.0
274,301.0,G09_HQ_2,1,1,1,1,13.455589,-16.683532,90,4.0,12.0,1.0
275,302.0,G09_HQ_3,1,1,1,1,13.455589,-16.683532,280,4.0,12.0,1.0
276,294.0,G09_Brufut_Mkt_1,1,1,1,1,13.380397,-16.749969,20,5.0,15.0,1.0
277,295.0,G09_Brufut_Mkt_2,1,1,1,1,13.380397,-16.749969,155,5.0,15.0,1.0
278,296.0,G09_Brufut_Mkt_3,1,1,1,1,13.380397,-16.749969,245,5.0,15.0,1.0
279,303.0,G09_Sifo_1,1,1,1,1,13.186536,-16.698533,15,5.0,3.0,1.0
280,304.0,G09_Sifo_2,1,1,1,1,13.186536,-16.698533,135,5.0,3.0,1.0
281,305.0,G09_Sifo_3,1,1,1,1,13.186536,-16.698533,255,5.0,3.0,1.0
282,306.0,G09_Brikama Medina_1,1,1,1,1,13.262571,-16.652669,45,5.0,13.0,1.0
283,307.0,G09_Brikama Medina_2,1,1,1,1,13.262571,-16.652669,165,5.0,13.0,1.0
284,308.0,G09_Brikama Medina_3,1,1,1,1,13.262571,-16.652669,288,5.0,13.0,1.0
285,309.0,G09_Busumbala Central_1,1,1,1,1,13.337755,-16.669288,3,5.0,15.0,1.0
286,310.0,G09_Busumbala Central_2,1,1,1,1,13.337755,-16.669288,121,5.0,15.0,1.0
287,311.0,G09_Busumbala Central_3,1,1,1,1,13.337755,-16.669288,240,5.0,15.0,1.0
288,312.0,G09_Ebo Town_3,1,1,1,1,13.436607,-16.669311,300,4.0,12.0,1.0
289,313.0,G09_Brikama Cow_1,1,1,1,1,13.272474,-16.65124,80,5.0,13.0,1.0
290,314.0,G09_Brikama Cow_2,1,1,1,1,13.272474,-16.65124,170,5.0,13.0,1.0
291,315.0,G09_Brikama Newtown_1,1,1,1,1,13.276498,-16.639722,90,5.0,13.0,1.0
292,316.0,G09_Brikama Newtown_2,1,1,1,1,13.276498,-16.639722,210,5.0,13.0,1.0
293,317.0,G09_Brikama Newtown_3,1,1,1,1,13.276498,-16.639722,330,5.0,13.0,1.0
294,318.0,G09_Farato_1,1,1,1,1,13.312439,-16.674004,30,5.0,3.0,1.0
295,319.0,G09_Farato_2,1,1,1,1,13.312439,-16.674004,140,5.0,3.0,1.0
296,320.0,G09_Farato_3,1,1,1,1,13.312439,-16.674004,290,5.0,3.0,1.0
297,321.0,G09_Jambajelli_1,1,1,1,1,13.281885,-16.733081,20,5.0,3.0,1.0
298,322.0,G09_Jambajelli_2,1,1,1,1,13.281885,-16.733081,120,5.0,3.0,1.0
299,323.0,G09_Jambajelli_3,1,1,1,1,13.281885,-16.733081,230,5.0,3.0,1.0
303,330.0,G09_Lamin 2_1,1,1,1,1,13.38743,-16.636709,30,5.0,15.0,1.0
304,331.0,G09_Lamin 2_2,1,1,1,1,13.38743,-16.636709,150,5.0,15.0,1.0
305,332.0,G09_Lamin 2_3,1,1,1,1,13.38743,-16.636709,270,5.0,15.0,1.0
306,333.0,G09_Banjul Hope Street_1,1,1,1,1,13.454936,-16.579679,0,3.0,21.0,1.0
307,334.0,G09_Banjul Hope Street_2,1,1,1,1,13.454936,-16.579679,120,3.0,21.0,1.0
308,335.0,G09_Banjul Hope Street_3,1,1,1,1,13.454936,-16.579679,240,3.0,21.0,1.0
309,336.0,G09_Farato 2_1,1,1,1,1,13.31892,-16.65931,0,5.0,15.0,1.0
310,337.0,G09_Farato 2_2,1,1,1,1,13.31892,-16.65931,110,5.0,15.0,1.0
311,338.0,G09_Farato 2_3,1,1,1,1,13.31892,-16.65931,190,5.0,15.0,1.0
312,339.0,G09_Brikama Sanchaba_1,1,1,1,1,13.26667,-16.636266,45,5.0,13.0,1.0
313,340.0,G09_Brikama Sanchaba_2,1,1,1,1,13.26667,-16.636266,110,5.0,13.0,1.0
314,341.0,G09_Brikama Sanchaba_3,1,1,1,1,13.26667,-16.636266,180,5.0,13.0,1.0
315,342.0,G09_Brufut Medina_1,1,1,1,1,13.374471,-16.766777,65,5.0,26.0,1.0
316,343.0,G09_Brufut Medina_2,1,1,1,1,13.374471,-16.766777,210,5.0,26.0,1.0
317,344.0,G09_Brufut Medina_3,1,1,1,1,13.374471,-16.766777,335,5.0,26.0,1.0
318,345.0,G09_Kunkujang Keitaya_1,1,1,1,1,13.38308,-16.671482,0,5.0,15.0,1.0
319,346.0,G09_Kunkujang Keitaya_2,1,1,1,1,13.38308,-16.671482,120,5.0,15.0,1.0
320,347.0,G09_Kunkujang Keitaya_3,1,1,1,1,13.38308,-16.671482,240,5.0,15.0,1.0
321,348.0,G09_Lamin Babylon_1,1,1,1,1,13.352107,-16.628316,15,5.0,15.0,1.0
322,349.0,G09_Lamin Babylon_2,1,1,1,1,13.352107,-16.628316,138,5.0,15.0,1.0
323,350.0,G09_Lamin Babylon_3,1,1,1,1,13.352107,-16.628316,253,5.0,15.0,1.0
324,351.0,G09_LK Sabiji Market_1,1,1,1,1,13.414763,-16.673953,85,4.0,12.0,1.0
325,352.0,G09_LK Sabiji Market_2,1,1,1,1,13.414763,-16.673953,190,4.0,12.0,1.0
326,353.0,G09_LK Sabiji Market_3,1,1,1,1,13.414763,-16.673953,325,4.0,12.0,1.0
327,354.0,G09_Sukuta 2_1,1,1,1,1,13.405219,-16.712221,60,5.0,15.0,1.0
328,355.0,G09_Sukuta 2_2,1,1,1,1,13.405219,-16.712221,180,5.0,15.0,1.0
329,356.0,G09_Sukuta 2_3,1,1,1,1,13.405219,-16.712221,300,5.0,15.0,1.0
330,357.0,G09_Jalambang_1,1,1,1,1,13.284791,-16.683275,0,5.0,13.0,1.0
331,358.0,G09_Jalambang_2,1,1,1,1,13.284791,-16.683275,140,5.0,13.0,1.0
332,359.0,G09_Jalambang_3,1,1,1,1,13.284791,-16.683275,230,5.0,13.0,1.0
333,360.0,G09_Jabang_1,1,1,1,1,13.363692,-16.712418,60,5.0,15.0,1.0
334,361.0,G09_Jabang_2,1,1,1,1,13.363692,-16.712418,220,5.0,15.0,1.0
335,362.0,G09_Jabang_3,1,1,1,1,13.363692,-16.712418,300,5.0,15.0,1.0
336,363.0,G09_Kanifing Estate_1,1,1,1,1,13.454845,-16.670718,0,4.0,12.0,1.0
337,364.0,G09_Kanifing Estate_2,1,1,1,1,13.454845,-16.670718,120,4.0,12.0,1.0
338,365.0,G09_Kanifing Estate_3,1,1,1,1,13.454845,-16.670718,240,4.0,12.0,1.0
339,366.0,G09_Kerr Seringe_1,1,1,1,1,13.428288,-16.725166,49,5.0,15.0,1.0
340,367.0,G09_Kerr Seringe_2,1,1,1,1,13.428288,-16.725166,160,5.0,15.0,1.0
341,368.0,G09_Kerr Seringe_3,1,1,1,1,13.428288,-16.725166,263,5.0,15.0,1.0
342,369.0,G09_LK School_1,1,1,1,1,13.449622,-16.681927,108,4.0,12.0,1.0
343,370.0,G09_LK School_2,1,1,1,1,13.449622,-16.681927,225,4.0,12.0,1.0
344,371.0,G09_LK School_3,1,1,1,1,13.449622,-16.681927,350,4.0,12.0,1.0
345,372.0,G09_Califonia_1,1,1,1,1,13.382105,-16.73226,60,5.0,15.0,1.0
346,373.0,G09_Califonia_2,1,1,1,1,13.382105,-16.73226,150,5.0,15.0,1.0
347,374.0,G09_Califonia_3,1,1,1,1,13.382105,-16.73226,240,5.0,15.0,1.0
348,375.0,G09_Mamuda_1,1,1,1,1,13.30083,-16.727552,70,5.0,3.0,1.0
349,376.0,G09_Mamuda_2,1,1,1,1,13.30083,-16.727552,195,5.0,3.0,1.0
350,377.0,G09_Mamuda_3,1,1,1,1,13.30083,-16.727552,305,5.0,3.0,1.0
351,378.0,G09_Tujereng Estate_1,1,1,1,1,13.292919,-16.78291,80,5.0,3.0,1.0
352,379.0,G09_Tujereng Estate_2,1,1,1,1,13.292919,-16.78291,190,5.0,3.0,1.0
353,380.0,G09_Tujereng Estate_3,1,1,1,1,13.292919,-16.78291,305,5.0,3.0,1.0
354,381.0,G09_Brufut_Nema_1,1,1,1,1,13.395149,-16.741104,40,5.0,15.0,1.0
355,382.0,G09_Brufut_Nema_2,1,1,1,1,13.395149,-16.741104,180,5.0,15.0,1.0
356,383.0,G09_Brufut_Nema_3,1,1,1,1,13.395149,-16.741104,270,5.0,15.0,1.0
357,384.0,G09_Latriya_1,1,1,1,1,13.329909,-16.707367,110,5.0,15.0,1.0
358,385.0,G09_Latriya_2,1,1,1,1,13.329909,-16.707367,240,5.0,15.0,1.0
359,386.0,G09_Latriya_3,1,1,1,1,13.329909,-16.707367,350,5.0,15.0,1.0
360,387.0,G09_Old Yundum 3_1,1,1,1,1,13.36629,-16.698078,57,5.0,15.0,1.0
361,388.0,G09_Old Yundum 3_2,1,1,1,1,13.36629,-16.698078,165,5.0,15.0,1.0
362,389.0,G09_Old Yundum 3_3,1,1,1,1,13.36629,-16.698078,301,5.0,15.0,1.0
363,390.0,G09_Sanchaba Touba_1,1,1,1,1,13.431632,-16.705403,40,5.0,15.0,1.0
364,391.0,G09_Sanchaba Touba_2,1,1,1,1,13.431632,-16.705403,130,5.0,15.0,1.0
365,392.0,G09_Sanchaba Touba_3,1,1,1,1,13.431632,-16.705403,250,5.0,15.0,1.0
366,393.0,G09_Sinchu Sorry_1,1,1,1,1,13.384708,-16.690123,5,5.0,15.0,1.0
367,394.0,G09_Sinchu Sorry_2,1,1,1,1,13.384708,-16.690123,125,5.0,15.0,1.0
368,395.0,G09_Sinchu Sorry_3,1,1,1,1,13.384708,-16.690123,245,5.0,15.0,1.0
369,396.0,G09_Welingara_1,1,1,1,1,13.402477,-16.665657,10,4.0,12.0,1.0
370,397.0,G09_Welingara_2,1,1,1,1,13.402477,-16.665657,130,4.0,12.0,1.0
371,398.0,G09_Welingara_3,1,1,1,1,13.402477,-16.665657,240,4.0,12.0,1.0
372,399.0,G09_Yundum Medina_1,1,1,1,1,13.356411,-16.679857,15,5.0,15.0,1.0
373,400.0,G09_Yundum Medina_2,1,1,1,1,13.356411,-16.679857,120,5.0,15.0,1.0
374,401.0,G09_Yundum Medina_3,1,1,1,1,13.356411,-16.679857,255,5.0,15.0,1.0
375,402.0,G09_Bakau Newtown_1,1,1,1,1,13.473304,-16.684997,40,4.0,12.0,1.0
376,403.0,G09_Bakau Newtown_2,1,1,1,1,13.473304,-16.684997,170,4.0,12.0,1.0
377,404.0,G09_Bakau Newtown_3,1,1,1,1,13.473304,-16.684997,260,4.0,12.0,1.0
378,405.0,G09_GTMI_1,1,1,1,1,13.4633,-16.6777,40,4.0,12.0,1.0
379,406.0,G09_GTMI_2,1,1,1,1,13.4633,-16.6777,140,4.0,12.0,1.0
380,407.0,G09_GTMI_3,1,1,1,1,13.4633,-16.6777,280,4.0,12.0,1.0
381,408.0,G09_Kololi-Palma Junction_1,1,1,1,1,13.450964,-16.711972,115,4.0,12.0,1.0
382,409.0,G09_Kololi-Palma Junction_2,1,1,1,1,13.450964,-16.711972,210,4.0,12.0,1.0
383,410.0,G09_Kololi-Palma Junction_3,1,1,1,1,13.450964,-16.711972,325,4.0,12.0,1.0
384,411.0,G09_Yuna_1,1,1,1,1,13.346569,-16.727217,0,5.0,15.0,1.0
385,412.0,G09_Yuna_2,1,1,1,1,13.346569,-16.727217,120,5.0,15.0,1.0
386,413.0,G09_Yuna_3,1,1,1,1,13.346569,-16.727217,240,5.0,15.0,1.0
387,414.0,G09_Lamin Daranka_1,1,1,1,1,13.378986,-16.632254,15,5.0,15.0,1.0
388,415.0,G09_Lamin Daranka_2,1,1,1,1,13.378986,-16.632254,150,5.0,15.0,1.0
389,416.0,G09_Lamin Daranka_3,1,1,1,1,13.378986,-16.632254,255,5.0,15.0,1.0
390,417.0,G09_Manjai_1,1,1,1,1,13.449818,-16.699864,105,4.0,12.0,1.0
391,418.0,G09_Manjai_2,1,1,1,1,13.449818,-16.699864,210,4.0,12.0,1.0
392,419.0,G09_Manjai_3,1,1,1,1,13.449818,-16.699864,290,4.0,12.0,1.0
393,420.0,G09_Busumbala 4_1,1,1,1,1,13.322172,-16.649661,12,5.0,15.0,1.0
394,421.0,G09_Busumbala 4_2,1,1,1,1,13.322172,-16.649661,128,5.0,15.0,1.0
395,422.0,G09_Busumbala 4_3,1,1,1,1,13.322172,-16.649661,240,5.0,15.0,1.0
396,423.0,G09_Lamin Sateyba_1,1,1,1,1,13.390692,-16.638504,90,5.0,15.0,1.0
397,424.0,G09_Lamin Sateyba_2,1,1,1,1,13.390692,-16.638504,202,5.0,15.0,1.0
398,425.0,G09_Lamin Sateyba_3,1,1,1,1,13.390692,-16.638504,300,5.0,15.0,1.0
399,426.0,G09_Banjulinding_1,1,1,1,1,13.378188,-16.661955,100,5.0,15.0,1.0
400,427.0,G09_Banjulinding_2,1,1,1,1,13.378188,-16.661955,216,5.0,15.0,1.0
401,428.0,G09_Banjulinding_3,1,1,1,1,13.378188,-16.661955,346,5.0,15.0,1.0
402,429.0,G09_Bijilo II_1,1,1,1,1,13.415244,-16.715273,27,5.0,15.0,1.0
403,430.0,G09_Bijilo II_2,1,1,1,1,13.415244,-16.715273,140,5.0,15.0,1.0
404,431.0,G09_Bijilo II_3,1,1,1,1,13.415244,-16.715273,265,5.0,15.0,1.0
405,432.0,G09_Gouygui Market_1,1,1,1,1,13.345562,-16.689922,70,5.0,15.0,1.0
406,433.0,G09_Gouygui Market_2,1,1,1,1,13.345562,-16.689922,199,5.0,15.0,1.0
407,434.0,G09_Gouygui Market_3,1,1,1,1,13.345562,-16.689922,328,5.0,15.0,1.0
408,435.0,G09_Gunjur 2_1,1,1,1,1,13.17956,-16.757304,90,5.0,3.0,1.0
409,436.0,G09_Gunjur 2_2,1,1,1,1,13.17956,-16.757304,260,5.0,3.0,1.0
410,437.0,G09_Gunjur 2_3,1,1,1,1,13.17956,-16.757304,330,5.0,3.0,1.0
411,438.0,G09_Sanyang 2_1,1,1,1,1,13.26792,-16.753997,10,5.0,3.0,1.0
412,439.0,G09_Sanyang 2_2,1,1,1,1,13.26792,-16.753997,180,5.0,3.0,1.0
413,440.0,G09_Sanyang 2_3,1,1,1,1,13.26792,-16.753997,265,5.0,3.0,1.0
414,441.0,G09_Brusubi 2_1,1,1,1,1,13.399941,-16.732439,60,5.0,15.0,1.0
415,442.0,G09_Brusubi 2_2,1,1,1,1,13.399941,-16.732439,180,5.0,15.0,1.0
416,443.0,G09_Brusubi 2_3,1,1,1,1,13.399941,-16.732439,300,5.0,15.0,1.0
417,444.0,G09_Busumbala 3_1,1,1,1,1,13.322111,-16.677615,30,5.0,15.0,1.0
418,445.0,G09_Busumbala 3_2,1,1,1,1,13.322111,-16.677615,149,5.0,15.0,1.0
419,446.0,G09_Busumbala 3_3,1,1,1,1,13.322111,-16.677615,251,5.0,15.0,1.0
420,447.0,G09_Brikama Jamisa II_1,1,1,1,1,13.270704,-16.663858,110,5.0,13.0,1.0
421,448.0,G09_Brikama Jamisa II_2,1,1,1,1,13.270704,-16.663858,210,5.0,13.0,1.0
422,449.0,G09_Brikama Jamisa II_3,1,1,1,1,13.270704,-16.663858,280,5.0,13.0,1.0
423,450.0,G09_Lamin Sanchaba_1,1,1,1,1,13.381102,-16.651944,30,5.0,15.0,1.0
424,451.0,G09_Lamin Sanchaba_2,1,1,1,1,13.381102,-16.651944,100,5.0,15.0,1.0
425,452.0,G09_Lamin Sanchaba_3,1,1,1,1,13.381102,-16.651944,230,5.0,15.0,1.0
426,453.0,G09_Yundum Medina II_1,1,1,1,1,13.348298,-16.677543,0,5.0,15.0,1.0
427,454.0,G09_Yundum Medina II_2,1,1,1,1,13.348298,-16.677543,120,5.0,15.0,1.0
428,455.0,G09_Yundum Medina II_3,1,1,1,1,13.348298,-16.677543,240,5.0,15.0,1.0
429,456.0,G09_Sinchu Alagie 2_1,1,1,1,1,13.375224,-16.682885,0,5.0,15.0,1.0
430,457.0,G09_Sinchu Alagie 2_2,1,1,1,1,13.375224,-16.682885,120,5.0,15.0,1.0
431,458.0,G09_Sinchu Alagie 2_3,1,1,1,1,13.375224,-16.682885,240,5.0,15.0,1.0
432,459.0,G09_Allunghari_1,1,1,1,1,13.314534,-14.234234,75,2.0,14.0,2.0
433,460.0,G09_Allunghari_2,1,1,1,1,13.314534,-14.234234,195,2.0,14.0,2.0
434,461.0,G09_Allunghari_3,1,1,1,1,13.314534,-14.234234,315,2.0,14.0,2.0
435,465.0,G09_Brufut TAF Estate_1,1,1,1,1,13.388248,-16.761083,60,5.0,15.0,1.0
436,466.0,G09_Brufut TAF Estate_2,1,1,1,1,13.388248,-16.761083,130,5.0,15.0,1.0
437,467.0,G09_Brufut TAF Estate_3,1,1,1,1,13.388248,-16.761083,220,5.0,15.0,1.0
438,462.0,G09_Mansajang_1,1,1,1,1,13.300362,-14.212259,100,2.0,14.0,2.0
439,463.0,G09_Mansajang_2,1,1,1,1,13.300362,-14.212259,235,2.0,14.0,2.0
440,464.0,G09_Mansajang_3,1,1,1,1,13.300362,-14.212259,355,2.0,14.0,2.0
590,1.0,L07_Nemasu II_1,2,1,1,1,13.407845,-16.698915,45,5.0,15.0,1.0
591,2.0,L07_Nemasu II_2,2,1,1,1,13.407845,-16.698915,120,5.0,15.0,1.0
592,3.0,L07_Nemasu II_3,2,1,1,1,13.407845,-16.698915,245,5.0,15.0,1.0
593,4.0,L18_Nemasu II_4,2,1,1,1,13.407845,-16.698915,45,5.0,15.0,1.0
594,5.0,L18_Nemasu II_5,2,1,1,1,13.407845,-16.698915,120,5.0,15.0,1.0
595,6.0,L18_Nemasu II_6,2,1,1,1,13.407845,-16.698915,245,5.0,15.0,1.0
596,7.0,L21_Nemasu II_7,2,1,1,1,13.407845,-16.698915,45,5.0,15.0,1.0
597,8.0,L21_Nemasu II_8,2,1,1,1,13.407845,-16.698915,120,5.0,15.0,1.0
598,9.0,L21_Nemasu II_9,2,1,1,1,13.407845,-16.698915,245,5.0,15.0,1.0
599,10.0,L18_Nemasu II_10,2,1,1,1,13.407845,-16.698915,45,5.0,15.0,1.0
600,11.0,L18_Nemasu II_11,2,1,1,1,13.407845,-16.698915,120,5.0,15.0,1.0
601,12.0,L18_Nemasu II_12,2,1,1,1,13.407845,-16.698915,245,5.0,15.0,1.0
602,1.0,L07_Mansakonko_1,2,1,1,1,13.455152,-15.535005,70,1.0,2.0,2.0
603,2.0,L07_Mansakonko_2,2,1,1,1,13.455152,-15.535005,140,1.0,2.0,2.0
604,3.0,L07_Mansakonko_3,2,1,1,1,13.455152,-15.535005,240,1.0,2.0,2.0
605,4.0,L18_Mansakonko_4,2,1,1,1,13.455152,-15.535005,70,1.0,2.0,2.0
606,5.0,L18_Mansakonko_5,2,1,1,1,13.455152,-15.535005,140,1.0,2.0,2.0
607,6.0,L18_Mansakonko_6,2,1,1,1,13.455152,-15.535005,240,1.0,2.0,2.0
608,7.0,L21_Mansakonko_7,2,1,1,1,13.455152,-15.535005,70,1.0,2.0,2.0
609,8.0,L21_Mansakonko_8,2,1,1,1,13.455152,-15.535005,140,1.0,2.0,2.0
610,9.0,L21_Mansakonko_9,2,1,1,1,13.455152,-15.535005,240,1.0,2.0,2.0
611,10.0,L18_Mansakonko_10,2,1,1,1,13.455152,-15.535005,70,1.0,2.0,2.0
612,11.0,L18_Mansakonko_11,2,1,1,1,13.455152,-15.535005,140,1.0,2.0,2.0
613,12.0,L18_Mansakonko_12,2,1,1,1,13.455152,-15.535005,240,1.0,2.0,2.0
614,1.0,L07_Sheraton_1,2,1,1,1,13.395622,-16.753732,60,5.0,15.0,1.0
615,2.0,L07_Sheraton_2,2,1,1,1,13.395622,-16.753732,160,5.0,15.0,1.0
616,3.0,L07_Sheraton_3,2,1,1,1,13.395622,-16.753732,220,5.0,15.0,1.0
617,4.0,L18_Sheraton_4,2,1,1,1,13.395622,-16.753732,60,5.0,15.0,1.0
618,5.0,L18_Sheraton_5,2,1,1,1,13.395622,-16.753732,160,5.0,15.0,1.0
619,6.0,L18_Sheraton_6,2,1,1,1,13.395622,-16.753732,220,5.0,15.0,1.0
620,7.0,L21_Sheraton_7,2,1,1,1,13.395622,-16.753732,60,5.0,15.0,1.0
621,8.0,L21_Sheraton_8,2,1,1,1,13.395622,-16.753732,160,5.0,15.0,1.0
622,9.0,L21_Sheraton_9,2,1,1,1,13.395622,-16.753732,220,5.0,15.0,1.0
623,1.0,L07_Sukuta_1,2,1,1,1,13.419277,-16.705192,50,5.0,15.0,1.0
624,2.0,L07_Sukuta_2,2,1,1,1,13.419277,-16.705192,170,5.0,15.0,1.0
625,3.0,L07_Sukuta_3,2,1,1,1,13.419277,-16.705192,290,5.0,15.0,1.0
626,4.0,L18_Sukuta_4,2,1,1,1,13.419277,-16.705192,50,5.0,15.0,1.0
627,5.0,L18_Sukuta_5,2,1,1,1,13.419277,-16.705192,170,5.0,15.0,1.0
628,6.0,L18_Sukuta_6,2,1,1,1,13.419277,-16.705192,290,5.0,15.0,1.0
629,7.0,L21_Sukuta_7,2,1,1,1,13.419277,-16.705192,50,5.0,15.0,1.0
630,8.0,L21_Sukuta_8,2,1,1,1,13.419277,-16.705192,170,5.0,15.0,1.0
631,9.0,L21_Sukuta_9,2,1,1,1,13.419277,-16.705192,290,5.0,15.0,1.0
632,10.0,L18_Sukuta_10,2,1,1,1,13.419277,-16.705192,50,5.0,15.0,1.0
633,11.0,L18_Sukuta_11,2,1,1,1,13.419277,-16.705192,170,5.0,15.0,1.0
634,12.0,L18_Sukuta_12,2,1,1,1,13.419277,-16.705192,290,5.0,15.0,1.0
642,2.0,L07_Kalaji_2,2,1,1,1,13.248927,-15.834784,250,5.0,20.0,2.0
643,3.0,L07_Kalaji_3,2,1,1,1,13.248927,-15.834784,350,5.0,20.0,2.0
644,4.0,L18_Kalaji_4,2,1,1,1,13.248927,-15.834784,160,5.0,20.0,2.0
645,5.0,L18_Kalaji_5,2,1,1,1,13.248927,-15.834784,250,5.0,20.0,2.0
646,6.0,L18_Kalaji_6,2,1,1,1,13.248927,-15.834784,350,5.0,20.0,2.0
647,1.0,L07_Kwenilla_1,2,1,1,1,13.396557,-15.793325,80,1.0,23.0,2.0
648,2.0,L07_Kwenilla_2,2,1,1,1,13.396557,-15.793325,230,1.0,23.0,2.0
649,3.0,L07_Kwenilla_3,2,1,1,1,13.396557,-15.793325,340,1.0,23.0,2.0
650,4.0,L18_Kwenilla_4,2,1,1,1,13.396557,-15.793325,80,1.0,23.0,2.0
651,5.0,L18_Kwenilla_5,2,1,1,1,13.396557,-15.793325,230,1.0,23.0,2.0
652,6.0,L18_Kwenilla_6,2,1,1,1,13.396557,-15.793325,340,1.0,23.0,2.0
653,1.0,L07_Kanilai Village_1,2,1,1,1,13.167975,-16.010147,60,5.0,6.0,2.0
654,2.0,L07_Kanilai Village_2,2,1,1,1,13.167975,-16.010147,230,5.0,6.0,2.0
655,3.0,L07_Kanilai Village_3,2,1,1,1,13.167975,-16.010147,330,5.0,6.0,2.0
656,4.0,L18_Kanilai Village_4,2,1,1,1,13.167975,-16.010147,60,5.0,6.0,2.0
657,5.0,L18_Kanilai Village_5,2,1,1,1,13.167975,-16.010147,230,5.0,6.0,2.0
658,6.0,L18_Kanilai Village_6,2,1,1,1,13.167975,-16.010147,330,5.0,6.0,2.0
659,1.0,L07_Ndugu Kebbeh_1,2,1,1,1,13.542507,-16.319659,120,6.0,28.0,2.0
660,2.0,L07_Ndugu Kebbeh_2,2,1,1,1,13.542507,-16.319659,230,6.0,28.0,2.0
661,3.0,L07_Ndugu Kebbeh_3,2,1,1,1,13.542507,-16.319659,330,6.0,28.0,2.0
662,4.0,L18_Ndugu Kebbeh_4,2,1,1,1,13.542507,-16.319659,120,6.0,28.0,2.0
663,5.0,L18_Ndugu Kebbeh_5,2,1,1,1,13.542507,-16.319659,230,6.0,28.0,2.0
664,6.0,L18_Ndugu Kebbeh_6,2,1,1,1,13.542507,-16.319659,330,6.0,28.0,2.0
665,10.0,L18_Ndugu Kebbeh_10,2,1,1,1,13.542507,-16.319659,120,6.0,28.0,2.0
666,11.0,L18_Ndugu Kebbeh_11,2,1,1,1,13.542507,-16.319659,230,6.0,28.0,2.0
667,12.0,L18_Ndugu Kebbeh_12,2,1,1,1,13.542507,-16.319659,330,6.0,28.0,2.0
668,1.0,L07_Sibanor_1,2,1,1,1,13.207006,-16.191847,80,5.0,7.0,2.0
669,2.0,L07_Sibanor_2,2,1,1,1,13.207006,-16.191847,170,5.0,7.0,2.0
670,3.0,L07_Sibanor_3,2,1,1,1,13.207006,-16.191847,270,5.0,7.0,2.0
671,4.0,L18_Sibanor_4,2,1,1,1,13.207006,-16.191847,80,5.0,7.0,2.0
672,5.0,L18_Sibanor_5,2,1,1,1,13.207006,-16.191847,170,5.0,7.0,2.0
673,6.0,L18_Sibanor_6,2,1,1,1,13.207006,-16.191847,270,5.0,7.0,2.0
674,1.0,L07_Mariama Kunda_1,2,1,1,1,13.36486,-16.729403,120,5.0,15.0,1.0
675,2.0,L07_Mariama Kunda_2,2,1,1,1,13.36486,-16.729403,240,5.0,15.0,1.0
676,3.0,L07_Mariama Kunda_3,2,1,1,1,13.36486,-16.729403,340,5.0,15.0,1.0
677,4.0,L18_Mariama Kunda_4,2,1,1,1,13.36486,-16.729403,120,5.0,15.0,1.0
678,5.0,L18_Mariama Kunda_5,2,1,1,1,13.36486,-16.729403,240,5.0,15.0,1.0
679,6.0,L18_Mariama Kunda_6,2,1,1,1,13.36486,-16.729403,340,5.0,15.0,1.0
680,7.0,L21_Mariama Kunda_7,2,1,1,1,13.36486,-16.729403,120,5.0,15.0,1.0
681,8.0,L21_Mariama Kunda_8,2,1,1,1,13.36486,-16.729403,240,5.0,15.0,1.0
682,9.0,L21_Mariama Kunda_9,2,1,1,1,13.36486,-16.729403,340,5.0,15.0,1.0
683,10.0,L18_Mariama Kunda_10,2,1,1,1,13.36486,-16.729403,120,5.0,15.0,1.0
684,11.0,L18_Mariama Kunda_11,2,1,1,1,13.36486,-16.729403,240,5.0,15.0,1.0
685,12.0,L18_Mariama Kunda_12,2,1,1,1,13.36486,-16.729403,340,5.0,15.0,1.0
686,1.0,L07_Kartong_1,2,1,1,1,13.097707,-16.761586,20,5.0,3.0,1.0
687,2.0,L07_Kartong_2,2,1,1,1,13.097707,-16.761586,90,5.0,3.0,1.0
688,3.0,L07_Kartong_3,2,1,1,1,13.097707,-16.761586,160,5.0,3.0,1.0
689,4.0,L18_Kartong_4,2,1,1,1,13.097707,-16.761586,20,5.0,3.0,1.0
690,5.0,L18_Kartong_5,2,1,1,1,13.097707,-16.761586,90,5.0,3.0,1.0
691,6.0,L18_Kartong_6,2,1,1,1,13.097707,-16.761586,160,5.0,3.0,1.0
692,7.0,L21_Kartong_7,2,1,1,1,13.097707,-16.761586,20,5.0,3.0,1.0
693,8.0,L21_Kartong_8,2,1,1,1,13.097707,-16.761586,90,5.0,3.0,1.0
694,9.0,L21_Kartong_9,2,1,1,1,13.097707,-16.761586,160,5.0,3.0,1.0
695,1.0,L07_Marakissa_1,2,1,1,1,13.216425,-16.648561,50,5.0,13.0,1.0
696,2.0,L07_Marakissa_2,2,1,1,1,13.216425,-16.648561,160,5.0,13.0,1.0
697,3.0,L07_Marakissa_3,2,1,1,1,13.216425,-16.648561,240,5.0,13.0,1.0
698,4.0,L18_Marakissa_4,2,1,1,1,13.216425,-16.648561,50,5.0,13.0,1.0
699,5.0,L18_Marakissa_5,2,1,1,1,13.216425,-16.648561,160,5.0,13.0,1.0
700,6.0,L18_Marakissa_6,2,1,1,1,13.216425,-16.648561,240,5.0,13.0,1.0
701,7.0,L21_Marakissa_7,2,1,1,1,13.216425,-16.648561,50,5.0,13.0,1.0
702,8.0,L21_Marakissa_8,2,1,1,1,13.216425,-16.648561,160,5.0,13.0,1.0
703,9.0,L21_Marakissa_9,2,1,1,1,13.216425,-16.648561,240,5.0,13.0,1.0
704,1.0,L07_Brikama II_1,2,1,1,1,13.266641,-16.642473,120,5.0,13.0,1.0
705,2.0,L07_Brikama II_2,2,1,1,1,13.266641,-16.642473,200,5.0,13.0,1.0
706,3.0,L07_Brikama II_3,2,1,1,1,13.266641,-16.642473,320,5.0,13.0,1.0
707,4.0,L18_Brikama II_4,2,1,1,1,13.266641,-16.642473,120,5.0,13.0,1.0
708,5.0,L18_Brikama II_5,2,1,1,1,13.266641,-16.642473,200,5.0,13.0,1.0
709,6.0,L18_Brikama II_6,2,1,1,1,13.266641,-16.642473,320,5.0,13.0,1.0
710,7.0,L21_Brikama II_7,2,1,1,1,13.266641,-16.642473,120,5.0,13.0,1.0
711,8.0,L21_Brikama II_8,2,1,1,1,13.266641,-16.642473,200,5.0,13.0,1.0
712,9.0,L21_Brikama II_9,2,1,1,1,13.266641,-16.642473,320,5.0,13.0,1.0
713,10.0,L18_Brikama ii_10,2,1,1,1,13.266641,-16.642473,120,5.0,13.0,1.0
714,11.0,L18_Brikama ii_11,2,1,1,1,13.266641,-16.642473,200,5.0,13.0,1.0
715,12.0,L18_Brikama ii_12,2,1,1,1,13.266641,-16.642473,320,5.0,13.0,1.0
716,1.0,L07_Old Yundum_1,2,1,1,1,13.368239,-16.686616,160,5.0,15.0,1.0
717,2.0,L07_Old Yundum_2,2,1,1,1,13.368239,-16.686616,230,5.0,15.0,1.0
718,3.0,L07_Old Yundum_3,2,1,1,1,13.368239,-16.686616,300,5.0,15.0,1.0
719,4.0,L18_Old Yundum_4,2,1,1,1,13.368239,-16.686616,160,5.0,15.0,1.0
720,5.0,L18_Old Yundum_5,2,1,1,1,13.368239,-16.686616,230,5.0,15.0,1.0
721,6.0,L18_Old Yundum_6,2,1,1,1,13.368239,-16.686616,300,5.0,15.0,1.0
722,7.0,L21_Old Yundum_7,2,1,1,1,13.368239,-16.686616,160,5.0,15.0,1.0
723,8.0,L21_Old Yundum_8,2,1,1,1,13.368239,-16.686616,230,5.0,15.0,1.0
724,9.0,L21_Old Yundum_9,2,1,1,1,13.368239,-16.686616,300,5.0,15.0,1.0
725,10.0,L18_Old Yundum_10,2,1,1,1,13.368239,-16.686616,160,5.0,15.0,1.0
726,11.0,L18_Old Yundum_11,2,1,1,1,13.368239,-16.686616,230,5.0,15.0,1.0
727,12.0,L18_Old Yundum_12,2,1,1,1,13.368239,-16.686616,300,5.0,15.0,1.0
728,1.0,L07_Kombo Kerewan_1,2,1,1,1,13.371528,-16.625793,90,5.0,15.0,1.0
729,2.0,L07_Kombo Kerewan_2,2,1,1,1,13.371528,-16.625793,150,5.0,15.0,1.0
730,3.0,L07_Kombo Kerewan_3,2,1,1,1,13.371528,-16.625793,230,5.0,15.0,1.0
731,4.0,L18_Kombo Kerewan_4,2,1,1,1,13.371528,-16.625793,90,5.0,15.0,1.0
732,5.0,L18_Kombo Kerewan_5,2,1,1,1,13.371528,-16.625793,150,5.0,15.0,1.0
733,6.0,L18_Kombo Kerewan_6,2,1,1,1,13.371528,-16.625793,230,5.0,15.0,1.0
734,7.0,L21_Kombo Kerewan_7,2,1,1,1,13.371528,-16.625793,90,5.0,15.0,1.0
735,8.0,L21_Kombo Kerewan_8,2,1,1,1,13.371528,-16.625793,150,5.0,15.0,1.0
736,9.0,L21_Kombo Kerewan_9,2,1,1,1,13.371528,-16.625793,230,5.0,15.0,1.0
737,10.0,L18_Kombo Kerewan_10,2,1,1,1,13.371528,-16.625793,90,5.0,15.0,1.0
738,11.0,L18_Kombo Kerewan_11,2,1,1,1,13.371528,-16.625793,150,5.0,15.0,1.0
739,12.0,L18_Kombo Kerewan_12,2,1,1,1,13.371528,-16.625793,230,5.0,15.0,1.0
740,1.0,L07_Kabafita_1,2,1,1,1,13.28309,-16.636769,90,5.0,13.0,1.0
741,2.0,L07_Kabafita_2,2,1,1,1,13.28309,-16.636769,200,5.0,13.0,1.0
742,3.0,L07_Kabafita_3,2,1,1,1,13.28309,-16.636769,320,5.0,13.0,1.0
743,4.0,L18_Kabafita_4,2,1,1,1,13.28309,-16.636769,90,5.0,13.0,1.0
744,5.0,L18_Kabafita_5,2,1,1,1,13.28309,-16.636769,200,5.0,13.0,1.0
745,6.0,L18_Kabafita_6,2,1,1,1,13.28309,-16.636769,320,5.0,13.0,1.0
746,7.0,L21_Kabafita_7,2,1,1,1,13.28309,-16.636769,90,5.0,13.0,1.0
747,8.0,L21_Kabafita_8,2,1,1,1,13.28309,-16.636769,200,5.0,13.0,1.0
748,9.0,L21_Kabafita_9,2,1,1,1,13.28309,-16.636769,320,5.0,13.0,1.0
749,10.0,L18_kabafita_10,2,1,1,1,13.28309,-16.636769,90,5.0,13.0,1.0
750,11.0,L18_Kabafita_11,2,1,1,1,13.28309,-16.636769,200,5.0,13.0,1.0
751,12.0,L18_Kabafita_12,2,1,1,1,13.28309,-16.636769,320,5.0,13.0,1.0
752,1.0,L07_Lamin_1,2,1,1,1,13.383897,-16.644597,20,5.0,15.0,1.0
753,2.0,L07_Lamin_2,2,1,1,1,13.383897,-16.644597,120,5.0,15.0,1.0
754,3.0,L07_Lamin_3,2,1,1,1,13.383897,-16.644597,240,5.0,15.0,1.0
755,4.0,L18_Lamin_4,2,1,1,1,13.383897,-16.644597,20,5.0,15.0,1.0
756,5.0,L18_Lamin_5,2,1,1,1,13.383897,-16.644597,120,5.0,15.0,1.0
757,6.0,L18_Lamin_6,2,1,1,1,13.383897,-16.644597,240,5.0,15.0,1.0
758,7.0,L21_Lamin_7,2,1,1,1,13.383897,-16.644597,20,5.0,15.0,1.0
759,8.0,L21_Lamin_8,2,1,1,1,13.383897,-16.644597,120,5.0,15.0,1.0
760,9.0,L21_Lamin_9,2,1,1,1,13.383897,-16.644597,240,5.0,15.0,1.0
761,10.0,L18_Lamin_10,2,1,1,1,13.383897,-16.644597,20,5.0,15.0,1.0
762,11.0,L18_Lamin_11,2,1,1,1,13.383897,-16.644597,120,5.0,15.0,1.0
763,12.0,L18_Lamin_12,2,1,1,1,13.383897,-16.644597,240,5.0,15.0,1.0
764,1.0,L07_Kanuma_1,2,1,1,1,13.497422,-16.509055,20,6.0,28.0,2.0
765,2.0,L07_Kanuma_2,2,1,1,1,13.497422,-16.509055,120,6.0,28.0,2.0
766,3.0,L07_Kanuma_3,2,1,1,1,13.497422,-16.509055,250,6.0,28.0,2.0
767,4.0,L18_Kanuma_4,2,1,1,1,13.497422,-16.509055,20,6.0,28.0,2.0
768,5.0,L18_Kanuma_5,2,1,1,1,13.497422,-16.509055,120,6.0,28.0,2.0
769,6.0,L18_Kanuma_6,2,1,1,1,13.497422,-16.509055,250,6.0,28.0,2.0
770,10.0,L18_Kanuma_10,2,1,1,1,13.497422,-16.509055,20,6.0,28.0,2.0
771,11.0,L18_Kanuma_11,2,1,1,1,13.497422,-16.509055,120,6.0,28.0,2.0
772,12.0,L18_Kanuma_12,2,1,1,1,13.497422,-16.509055,250,6.0,28.0,2.0
773,1.0,L07_New Jeshwang_1,2,1,1,1,13.436689,-16.674701,80,4.0,12.0,1.0
774,2.0,L07_New Jeshwang_2,2,1,1,1,13.436689,-16.674701,190,4.0,12.0,1.0
775,3.0,L07_New Jeshwang_3,2,1,1,1,13.436689,-16.674701,280,4.0,12.0,1.0
776,4.0,L18_New Jeshwang_4,2,1,1,1,13.436689,-16.674701,80,4.0,12.0,1.0
777,5.0,L18_New Jeshwang_5,2,1,1,1,13.436689,-16.674701,190,4.0,12.0,1.0
778,6.0,L18_New Jeshwang_6,2,1,1,1,13.436689,-16.674701,280,4.0,12.0,1.0
779,7.0,L21_New Jeshwang_7,2,1,1,1,13.436689,-16.674701,80,4.0,12.0,1.0
780,8.0,L21_New Jeshwang_8,2,1,1,1,13.436689,-16.674701,190,4.0,12.0,1.0
781,9.0,L21_New Jeshwang_9,2,1,1,1,13.436689,-16.674701,280,4.0,12.0,1.0
782,10.0,L18_New Jeshwang_10,2,1,1,1,13.436689,-16.674701,80,4.0,12.0,1.0
783,11.0,L18_New Jeshwang_11,2,1,1,1,13.436689,-16.674701,190,4.0,12.0,1.0
784,12.0,L18_New Jeshwang_12,2,1,1,1,13.436689,-16.674701,280,4.0,12.0,1.0
785,1.0,L07_Faji Kunda_1,2,1,1,1,13.419903,-16.667111,80,4.0,12.0,1.0
786,2.0,L07_Faji Kunda_2,2,1,1,1,13.419903,-16.667111,190,4.0,12.0,1.0
787,3.0,L07_Faji Kunda_3,2,1,1,1,13.419903,-16.667111,300,4.0,12.0,1.0
788,4.0,L18_Faji Kunda_4,2,1,1,1,13.419903,-16.667111,80,4.0,12.0,1.0
789,5.0,L18_Faji Kunda_5,2,1,1,1,13.419903,-16.667111,190,4.0,12.0,1.0
790,6.0,L18_Faji Kunda_6,2,1,1,1,13.419903,-16.667111,300,4.0,12.0,1.0
791,7.0,L21_Faji Kunda_7,2,1,1,1,13.419903,-16.667111,80,4.0,12.0,1.0
792,8.0,L21_Faji Kunda_8,2,1,1,1,13.419903,-16.667111,190,4.0,12.0,1.0
793,9.0,L21_Faji Kunda_9,2,1,1,1,13.419903,-16.667111,300,4.0,12.0,1.0
794,10.0,L18_Faji Kunda_10,2,1,1,1,13.419903,-16.667111,80,4.0,12.0,1.0
795,11.0,L18_Faji Kunda_11,2,1,1,1,13.419903,-16.667111,190,4.0,12.0,1.0
796,12.0,L18_Faji Kunda_12,2,1,1,1,13.419903,-16.667111,300,4.0,12.0,1.0
797,1.0,L07_Nemasu_1,2,1,1,1,13.416081,-16.690895,50,5.0,15.0,1.0
798,2.0,L07_Nemasu_2,2,1,1,1,13.416081,-16.690895,180,5.0,15.0,1.0
799,3.0,L07_Nemasu_3,2,1,1,1,13.416081,-16.690895,280,5.0,15.0,1.0
800,4.0,L18_Nemasu_4,2,1,1,1,13.416081,-16.690895,50,5.0,15.0,1.0
801,5.0,L18_Nemasu_5,2,1,1,1,13.416081,-16.690895,180,5.0,15.0,1.0
802,6.0,L18_Nemasu_6,2,1,1,1,13.416081,-16.690895,280,5.0,15.0,1.0
803,7.0,L21_Nemasu_7,2,1,1,1,13.416081,-16.690895,50,5.0,15.0,1.0
804,8.0,L21_Nemasu_8,2,1,1,1,13.416081,-16.690895,180,5.0,15.0,1.0
805,9.0,L21_Nemasu_9,2,1,1,1,13.416081,-16.690895,280,5.0,15.0,1.0
806,10.0,L18_Nemasu_10,2,1,1,1,13.416081,-16.690895,50,5.0,15.0,1.0
807,11.0,L18_Nemasu_11,2,1,1,1,13.416081,-16.690895,180,5.0,15.0,1.0
808,12.0,L18_Nemasu_12,2,1,1,1,13.416081,-16.690895,280,5.0,15.0,1.0
809,1.0,L07_Fass_1,2,1,1,1,13.564781,-16.428517,20,6.0,28.0,2.0
810,2.0,L07_Fass_2,2,1,1,1,13.564781,-16.428517,130,6.0,28.0,2.0
811,3.0,L07_Fass_3,2,1,1,1,13.564781,-16.428517,240,6.0,28.0,2.0
812,4.0,L18_Fass_4,2,1,1,1,13.564781,-16.428517,20,6.0,28.0,2.0
813,5.0,L18_Fass_5,2,1,1,1,13.564781,-16.428517,130,6.0,28.0,2.0
814,6.0,L18_Fass_6,2,1,1,1,13.564781,-16.428517,240,6.0,28.0,2.0
815,1.0,L07_Future Lecce_1,2,1,1,1,13.455391,-16.703818,80,4.0,12.0,1.0
816,2.0,L07_Future Lecce_2,2,1,1,1,13.455391,-16.703818,160,4.0,12.0,1.0
817,3.0,L07_Future Lecce_3,2,1,1,1,13.455391,-16.703818,240,4.0,12.0,1.0
818,4.0,L18_Future Lecce_4,2,1,1,1,13.455391,-16.703818,80,4.0,12.0,1.0
819,5.0,L18_Future Lecce_5,2,1,1,1,13.455391,-16.703818,160,4.0,12.0,1.0
820,6.0,L18_Future Lecce_6,2,1,1,1,13.455391,-16.703818,240,4.0,12.0,1.0
821,7.0,L21_Future Lecce_7,2,1,1,1,13.455391,-16.703818,80,4.0,12.0,1.0
822,8.0,L21_Future Lecce_8,2,1,1,1,13.455391,-16.703818,160,4.0,12.0,1.0
823,9.0,L21_Future Lecce_9,2,1,1,1,13.455391,-16.703818,240,4.0,12.0,1.0
824,1.0,L07_White Building_1,2,1,1,1,13.465954,-16.691005,0,4.0,12.0,1.0
825,2.0,L07_White Building_2,2,1,1,1,13.465954,-16.691005,160,4.0,12.0,1.0
826,3.0,L07_White Building_3,2,1,1,1,13.465954,-16.691005,240,4.0,12.0,1.0
827,4.0,L18_White Building_4,2,1,1,1,13.465954,-16.691005,0,4.0,12.0,1.0
828,5.0,L18_White Building_5,2,1,1,1,13.465954,-16.691005,160,4.0,12.0,1.0
829,6.0,L18_White Building_6,2,1,1,1,13.465954,-16.691005,240,4.0,12.0,1.0
830,7.0,L21_White Building_7,2,1,1,1,13.465954,-16.691005,0,4.0,12.0,1.0
831,8.0,L21_White Building_8,2,1,1,1,13.465954,-16.691005,160,4.0,12.0,1.0
832,9.0,L21_White Building_9,2,1,1,1,13.465954,-16.691005,240,4.0,12.0,1.0
833,1.0,L07_Jiboroh_1,2,1,1,1,13.185054,-16.577187,90,5.0,26.0,2.0
834,2.0,L07_Jiboroh_2,2,1,1,1,13.185054,-16.577187,190,5.0,26.0,2.0
835,3.0,L07_Jiboroh_3,2,1,1,1,13.185054,-16.577187,340,5.0,26.0,2.0
836,4.0,L18_Jiboroh_4,2,1,1,1,13.185054,-16.577187,90,5.0,26.0,2.0
837,5.0,L18_Jiboroh_5,2,1,1,1,13.185054,-16.577187,190,5.0,26.0,2.0
838,6.0,L18_Jiboroh_6,2,1,1,1,13.185054,-16.577187,340,5.0,26.0,2.0
839,7.0,L21_Jiboroh_7,2,1,1,1,13.185054,-16.577187,90,5.0,26.0,2.0
840,8.0,L21_Jiboroh_8,2,1,1,1,13.185054,-16.577187,190,5.0,26.0,2.0
841,9.0,L21_Jiboroh_9,2,1,1,1,13.185054,-16.577187,340,5.0,26.0,2.0
842,1.0,L07_Banjul Tower_1,2,1,1,1,13.458224,-16.584069,60,3.0,21.0,1.0
843,2.0,L07_Banjul Tower_2,2,1,1,1,13.458224,-16.584069,170,3.0,21.0,1.0
844,3.0,L07_Banjul Tower_3,2,1,1,1,13.458224,-16.584069,280,3.0,21.0,1.0
845,4.0,L18_Banjul Tower_4,2,1,1,1,13.458224,-16.584069,60,3.0,21.0,1.0
846,5.0,L18_Banjul Tower_5,2,1,1,1,13.458224,-16.584069,170,3.0,21.0,1.0
847,6.0,L18_Banjul Tower_6,2,1,1,1,13.458224,-16.584069,280,3.0,21.0,1.0
848,7.0,L21_Banjul Tower_7,2,1,1,1,13.458224,-16.584069,60,3.0,21.0,1.0
849,8.0,L21_Banjul Tower_8,2,1,1,1,13.458224,-16.584069,170,3.0,21.0,1.0
850,9.0,L21_Banjul Tower_9,2,1,1,1,13.458224,-16.584069,280,3.0,21.0,1.0
851,10.0,L18_Banjul Tower_10,2,1,1,1,13.458224,-16.584069,60,3.0,21.0,1.0
852,11.0,L18_Banjul Tower_11,2,1,1,1,13.458224,-16.584069,170,3.0,21.0,1.0
853,12.0,L18_Banjul Tower_12,2,1,1,1,13.458224,-16.584069,280,3.0,21.0,1.0
854,1.0,L07_Saad Raslan_1,2,1,1,1,13.457916,-16.662042,30,4.0,12.0,1.0
855,2.0,L07_Saad Raslan_2,2,1,1,1,13.457916,-16.662042,180,4.0,12.0,1.0
856,3.0,L07_Saad Raslan_3,2,1,1,1,13.457916,-16.662042,300,4.0,12.0,1.0
857,4.0,L18_Saad Raslan_4,2,1,1,1,13.457916,-16.662042,30,4.0,12.0,1.0
858,5.0,L18_Saad Raslan_5,2,1,1,1,13.457916,-16.662042,180,4.0,12.0,1.0
859,6.0,L18_Saad Raslan_6,2,1,1,1,13.457916,-16.662042,300,4.0,12.0,1.0
860,7.0,L21_Saad Raslan_7,2,1,1,1,13.457916,-16.662042,30,4.0,12.0,1.0
861,8.0,L21_Saad Raslan_8,2,1,1,1,13.457916,-16.662042,180,4.0,12.0,1.0
862,9.0,L21_Saad Raslan_9,2,1,1,1,13.457916,-16.662042,300,4.0,12.0,1.0
863,10.0,L18_Saad Raslan_10,2,1,1,1,13.457916,-16.662042,30,4.0,12.0,1.0
864,11.0,L18_Saad Raslan_11,2,1,1,1,13.457916,-16.662042,180,4.0,12.0,1.0
865,12.0,L18_Saad Raslan_12,2,1,1,1,13.457916,-16.662042,300,4.0,12.0,1.0
866,1.0,L07_Bansang_1,2,1,1,1,13.432151,-14.656466,30,2.0,25.0,2.0
867,2.0,L07_Bansang_2,2,1,1,1,13.432151,-14.656466,160,2.0,25.0,2.0
868,3.0,L07_Bansang_3,2,1,1,1,13.432151,-14.656466,280,2.0,25.0,2.0
869,5.0,L18_Bansang_5,2,1,1,1,13.432151,-14.656466,160,2.0,25.0,2.0
870,6.0,L18_Bansang_6,2,1,1,1,13.432151,-14.656466,280,2.0,25.0,2.0
871,4.0,L18_Bansang_4,2,1,1,1,13.432151,-14.656466,30,2.0,25.0,2.0
872,7.0,L21_Bansang_7,2,1,1,1,13.432151,-14.656466,30,2.0,25.0,2.0
873,8.0,L21_Bansang_8,2,1,1,1,13.432151,-14.656466,160,2.0,25.0,2.0
874,9.0,L21_Bansang_9,2,1,1,1,13.432151,-14.656466,280,2.0,25.0,2.0
875,10.0,L18_Bansang_10,2,1,1,1,13.432151,-14.656466,30,2.0,25.0,2.0
876,11.0,L18_Bansang_11,2,1,1,1,13.432151,-14.656466,160,2.0,25.0,2.0
877,12.0,L18_Bansang_12,2,1,1,1,13.432151,-14.656466,280,2.0,25.0,2.0
878,1.0,L07_Kudang_1,2,1,1,1,13.660402,-15.065687,0,7.0,9.0,2.0
879,2.0,L07_Kudang_2,2,1,1,1,13.660402,-15.065687,120,7.0,9.0,2.0
880,3.0,L07_Kudang_3,2,1,1,1,13.660402,-15.065687,200,7.0,9.0,2.0
881,4.0,L18_Kudang_4,2,1,1,1,13.660402,-15.065687,0,7.0,9.0,2.0
882,5.0,L18_Kudang_5,2,1,1,1,13.660402,-15.065687,120,7.0,9.0,2.0
883,6.0,L18_Kudang_6,2,1,1,1,13.660402,-15.065687,200,7.0,9.0,2.0
884,1.0,L07_Brikama Ba_1,2,1,1,1,13.532752,-14.925251,180,7.0,25.0,2.0
885,2.0,L07_Brikama Ba_2,2,1,1,1,13.532752,-14.925251,240,7.0,25.0,2.0
886,3.0,L07_Brikama Ba_3,2,1,1,1,13.532752,-14.925251,340,7.0,25.0,2.0
887,4.0,L18_Brikama Ba_4,2,1,1,1,13.532752,-14.925251,180,7.0,25.0,2.0
888,5.0,L18_Brikama Ba_5,2,1,1,1,13.532752,-14.925251,240,7.0,25.0,2.0
889,6.0,L18_Brikama Ba_6,2,1,1,1,13.532752,-14.925251,340,7.0,25.0,2.0
890,7.0,L21_Brikama Ba_7,2,1,1,1,13.532752,-14.925251,180,7.0,25.0,2.0
891,8.0,L21_Brikama Ba_8,2,1,1,1,13.532752,-14.925251,240,7.0,25.0,2.0
892,9.0,L21_Brikama Ba_9,2,1,1,1,13.532752,-14.925251,340,7.0,25.0,2.0
893,10.0,L18_Brikama Ba_10,2,1,1,1,13.532752,-14.925251,180,7.0,25.0,2.0
894,11.0,L18_Brikama Ba_11,2,1,1,1,13.532752,-14.925251,240,7.0,25.0,2.0
895,12.0,L18_Brikama Ba_12,2,1,1,1,13.532752,-14.925251,340,7.0,25.0,2.0
896,5.0,L18_Ebo Town_5,2,1,1,1,13.436607,-16.669311,150,4.0,12.0,1.0
897,4.0,L18_Ebo Town_4,2,1,1,1,13.436607,-16.669311,60,4.0,12.0,1.0
898,2.0,L07_Ebo Town_2,2,1,1,1,13.436607,-16.669311,150,4.0,12.0,1.0
899,1.0,L07_Ebo Town_1,2,1,1,1,13.436607,-16.669311,60,4.0,12.0,1.0
900,7.0,L21_Ebo Town_7,2,1,1,1,13.436607,-16.669311,60,4.0,12.0,1.0
901,8.0,L21_Ebo Town_8,2,1,1,1,13.436607,-16.669311,150,4.0,12.0,1.0
902,6.0,L18_Ebo Town_6,2,1,1,1,13.436607,-16.669311,300,4.0,12.0,1.0
903,9.0,L21_Ebo Town_9,2,1,1,1,13.436607,-16.669311,300,4.0,12.0,1.0
904,3.0,L07_Ebo Town_3,2,1,1,1,13.436607,-16.669311,300,4.0,12.0,1.0
905,10.0,L18_Ebo Town_10,2,1,1,1,13.436607,-16.669311,60,4.0,12.0,1.0
906,11.0,L18_Ebo Town_11,2,1,1,1,13.436607,-16.669311,150,4.0,12.0,1.0
907,12.0,L18_Ebo Town_12,2,1,1,1,13.436607,-16.669311,300,4.0,12.0,1.0
908,1.0,L07_Basse_1,2,1,1,1,13.31112,-14.213155,0,2.0,14.0,2.0
909,2.0,L07_Basse_2,2,1,1,1,13.31112,-14.213155,160,2.0,14.0,2.0
910,3.0,L07_Basse_3,2,1,1,1,13.31112,-14.213155,280,2.0,14.0,2.0
911,4.0,L18_Basse_4,2,1,1,1,13.31112,-14.213155,0,2.0,14.0,2.0
912,5.0,L18_Basse_5,2,1,1,1,13.31112,-14.213155,160,2.0,14.0,2.0
913,6.0,L18_Basse_6,2,1,1,1,13.31112,-14.213155,280,2.0,14.0,2.0
914,7.0,L21_Basse_7,2,1,1,1,13.31112,-14.213155,0,2.0,14.0,2.0
915,8.0,L21_Basse_8,2,1,1,1,13.31112,-14.213155,160,2.0,14.0,2.0
916,9.0,L21_Basse_9,2,1,1,1,13.31112,-14.213155,280,2.0,14.0,2.0
917,10.0,L18_Basse_10,2,1,1,1,13.31112,-14.213155,0,2.0,14.0,2.0
918,11.0,L18_Basse_11,2,1,1,1,13.31112,-14.213155,160,2.0,14.0,2.0
919,12.0,L18_Basse_12,2,1,1,1,13.31112,-14.213155,280,2.0,14.0,2.0
920,1.0,L07_Farababanta_1,2,1,1,1,13.248195,-16.520254,20,5.0,26.0,2.0
921,2.0,L07_Farababanta_2,2,1,1,1,13.248195,-16.520254,140,5.0,26.0,2.0
922,3.0,L07_Farababanta_3,2,1,1,1,13.248195,-16.520254,280,5.0,26.0,2.0
923,4.0,L18_Farababanta_4,2,1,1,1,13.248195,-16.520254,20,5.0,26.0,2.0
924,5.0,L18_Farababanta_5,2,1,1,1,13.248195,-16.520254,140,5.0,26.0,2.0
925,6.0,L18_Farababanta_6,2,1,1,1,13.248195,-16.520254,280,5.0,26.0,2.0
926,10.0,L18_Farababanta_10,2,1,1,1,13.248195,-16.520254,20,5.0,26.0,2.0
927,11.0,L18_Farababanta_11,2,1,1,1,13.248195,-16.520254,140,5.0,26.0,2.0
928,12.0,L18_Farababanta_12,2,1,1,1,13.248195,-16.520254,280,5.0,26.0,2.0
929,1.0,L07_farafenni_1,2,1,1,1,13.572049,-15.596224,90,6.0,17.0,2.0
930,2.0,L07_Farafenni_2,2,1,1,1,13.572049,-15.596224,170,6.0,17.0,2.0
931,3.0,L07_Farafenni_3,2,1,1,1,13.572049,-15.596224,280,6.0,17.0,2.0
932,4.0,L18_Farafenni_4,2,1,1,1,13.572049,-15.596224,90,6.0,17.0,2.0
933,5.0,L18_Farafenni_5,2,1,1,1,13.572049,-15.596224,170,6.0,17.0,2.0
934,6.0,L18_Farafenni_6,2,1,1,1,13.572049,-15.596224,280,6.0,17.0,2.0
935,7.0,L21_Farafenni_7,2,1,1,1,13.572049,-15.596224,90,6.0,17.0,2.0
936,8.0,L21_farafenni_8,2,1,1,1,13.572049,-15.596224,170,6.0,17.0,2.0
937,9.0,L21_farafenni_9,2,1,1,1,13.572049,-15.596224,280,6.0,17.0,2.0
938,10.0,L18_Farafenni_10,2,1,1,1,13.572049,-15.596224,90,6.0,17.0,2.0
939,11.0,L18_Farafenni_11,2,1,1,1,13.572049,-15.596224,170,6.0,17.0,2.0
940,12.0,L18_Farafenni_12,2,1,1,1,13.572049,-15.596224,280,6.0,17.0,2.0
941,1.0,L07_Bakadagi_1,2,1,1,1,13.302762,-14.387321,35,2.0,5.0,2.0
942,2.0,L07_Bakadagi_2,2,1,1,1,13.302762,-14.387321,170,2.0,5.0,2.0
943,3.0,L07_Bakadagi_3,2,1,1,1,13.302762,-14.387321,280,2.0,5.0,2.0
944,4.0,L18_Bakadagi_4,2,1,1,1,13.302762,-14.387321,35,2.0,5.0,2.0
945,5.0,L18_Bakadagi_5,2,1,1,1,13.302762,-14.387321,170,2.0,5.0,2.0
946,6.0,L18_Bakadagi_6,2,1,1,1,13.302762,-14.387321,280,2.0,5.0,2.0
947,1.0,L07_George Town_1,2,1,1,1,13.538347,-14.756994,120,7.0,8.0,2.0
948,2.0,L07_George Town_2,2,1,1,1,13.538347,-14.756994,240,7.0,8.0,2.0
949,3.0,L07_George Town_3,2,1,1,1,13.538347,-14.756994,340,7.0,8.0,2.0
